---
http_interactions:
- request:
    method: get
    uri: https://data.cdc.gov/resource/x9gk-5huc.json?week=51
    body:
      encoding: US-ASCII
      string: ''
    headers:
      User-Agent:
      - Faraday v2.7.2
      Accept-Encoding:
      - gzip;q=1.0,deflate;q=0.6,identity;q=0.3
      Accept:
      - "*/*"
  response:
    status:
      code: 200
      message: OK
    headers:
      Server:
      - nginx
      Date:
      - Sun, 08 Jan 2023 21:15:02 GMT
      Content-Type:
      - application/json;charset=utf-8
      Transfer-Encoding:
      - chunked
      Connection:
      - keep-alive
      Access-Control-Allow-Origin:
      - "*"
      Etag:
      - '"YWxwaGEuMzA3NTM3XzVfMTY1Y3BOWWZib1h4bjhQOWtlMDhiMU14MWhTM1JJ---gzipcj9Vl78oPa8m4w0oB4zpQWpEk6E--gzip--gzip"'
      X-Soda2-Fields:
      - '["states","year","week","label","m1","m1_flag","m2","m2_flag","m3","m3_flag","m4","m4_flag","location1","location2","sort_order","geocode"]'
      X-Soda2-Types:
      - '["text","text","number","text","number","text","number","text","number","text","number","text","text","text","text","point"]'
      X-Soda2-Data-Out-Of-Date:
      - 'false'
      X-Soda2-Truth-Last-Modified:
      - Fri, 06 Jan 2023 16:38:25 GMT
      X-Soda2-Secondary-Last-Modified:
      - Fri, 06 Jan 2023 16:38:25 GMT
      Last-Modified:
      - Fri, 06 Jan 2023 16:38:25 GMT
      Vary:
      - Accept-Encoding
      Age:
      - '0'
      X-Socrata-Region:
      - aws-us-east-1-fedramp-prod
      Strict-Transport-Security:
      - max-age=31536000; includeSubDomains
      X-Socrata-Requestid:
      - a48f915629c82945cbb410341b580dc0
    body:
      encoding: ASCII-8BIT
      string: |
        [{"states":"US RESIDENTS","year":"2022","week":"51","label":"Anthrax","m1_flag":"-","m2":"0","m2_flag":"-","m3_flag":"-","m4_flag":"-","location2":"US RESIDENTS","sort_order":"20225100001"}
        ,{"states":"NEW ENGLAND","year":"2022","week":"51","label":"Anthrax","m1_flag":"-","m2":"0","m2_flag":"-","m3_flag":"-","m4_flag":"-","location2":"NEW ENGLAND","sort_order":"20225100002"}
        ,{"states":"CONNECTICUT","year":"2022","week":"51","label":"Anthrax","m1_flag":"-","m2":"0","m2_flag":"-","m3_flag":"-","m4_flag":"-","location1":"CONNECTICUT","sort_order":"20225100003","geocode":{"type":"Point","coordinates":[-72.67399,41.76376]}}
        ,{"states":"MAINE","year":"2022","week":"51","label":"Anthrax","m1_flag":"-","m2":"0","m2_flag":"-","m3_flag":"-","m4_flag":"-","location1":"MAINE","sort_order":"20225100004","geocode":{"type":"Point","coordinates":[-69.77631,44.31804]}}
        ,{"states":"MASSACHUSETTS","year":"2022","week":"51","label":"Anthrax","m1_flag":"-","m2":"0","m2_flag":"-","m3_flag":"-","m4_flag":"-","location1":"MASSACHUSETTS","sort_order":"20225100005","geocode":{"type":"Point","coordinates":[-71.05675,42.35866]}}
        ,{"states":"NEW HAMPSHIRE","year":"2022","week":"51","label":"Anthrax","m1_flag":"-","m2":"0","m2_flag":"-","m3_flag":"-","m4_flag":"-","location1":"NEW HAMPSHIRE","sort_order":"20225100006","geocode":{"type":"Point","coordinates":[-71.53661,43.20725]}}
        ,{"states":"RHODE ISLAND","year":"2022","week":"51","label":"Anthrax","m1_flag":"-","m2":"0","m2_flag":"-","m3_flag":"-","m4_flag":"-","location1":"RHODE ISLAND","sort_order":"20225100007","geocode":{"type":"Point","coordinates":[-71.41198,41.82388]}}
        ,{"states":"VERMONT","year":"2022","week":"51","label":"Anthrax","m1_flag":"-","m2":"0","m2_flag":"-","m3_flag":"-","m4_flag":"-","location1":"VERMONT","sort_order":"20225100008","geocode":{"type":"Point","coordinates":[-72.57627,44.26029]}}
        ,{"states":"MIDDLE ATLANTIC","year":"2022","week":"51","label":"Anthrax","m1_flag":"-","m2":"0","m2_flag":"-","m3_flag":"-","m4_flag":"-","location2":"MIDDLE ATLANTIC","sort_order":"20225100009"}
        ,{"states":"NEW JERSEY","year":"2022","week":"51","label":"Anthrax","m1_flag":"-","m2":"0","m2_flag":"-","m3_flag":"-","m4_flag":"-","location1":"NEW JERSEY","sort_order":"20225100010","geocode":{"type":"Point","coordinates":[-74.75942,40.21789]}}
        ,{"states":"NEW YORK","year":"2022","week":"51","label":"Anthrax","m1_flag":"-","m2":"0","m2_flag":"-","m3_flag":"-","m4_flag":"-","location1":"NEW YORK","sort_order":"20225100011","geocode":{"type":"Point","coordinates":[-73.75522,42.65155]}}
        ,{"states":"NEW YORK CITY","year":"2022","week":"51","label":"Anthrax","m1_flag":"-","m2":"0","m2_flag":"-","m3_flag":"-","m4_flag":"-","location1":"NEW YORK CITY","sort_order":"20225100012","geocode":{"type":"Point","coordinates":[-73.75522,42.65155]}}
        ,{"states":"PENNSYLVANIA","year":"2022","week":"51","label":"Anthrax","m1_flag":"-","m2":"0","m2_flag":"-","m3_flag":"-","m4_flag":"-","location1":"PENNSYLVANIA","sort_order":"20225100013","geocode":{"type":"Point","coordinates":[-76.88224,40.25986]}}
        ,{"states":"EAST NORTH CENTRAL","year":"2022","week":"51","label":"Anthrax","m1_flag":"-","m2":"0","m2_flag":"-","m3_flag":"-","m4_flag":"-","location2":"EAST NORTH CENTRAL","sort_order":"20225100014"}
        ,{"states":"ILLINOIS","year":"2022","week":"51","label":"Anthrax","m1_flag":"-","m2":"0","m2_flag":"-","m3_flag":"-","m4_flag":"-","location1":"ILLINOIS","sort_order":"20225100015","geocode":{"type":"Point","coordinates":[-89.64361,39.8013]}}
        ,{"states":"INDIANA","year":"2022","week":"51","label":"Anthrax","m1_flag":"-","m2":"0","m2_flag":"-","m3_flag":"-","m4_flag":"-","location1":"INDIANA","sort_order":"20225100016","geocode":{"type":"Point","coordinates":[-86.15013,39.76691]}}
        ,{"states":"MICHIGAN","year":"2022","week":"51","label":"Anthrax","m1_flag":"-","m2":"0","m2_flag":"-","m3_flag":"-","m4_flag":"-","location1":"MICHIGAN","sort_order":"20225100017","geocode":{"type":"Point","coordinates":[-84.55226,42.73194]}}
        ,{"states":"OHIO","year":"2022","week":"51","label":"Anthrax","m1_flag":"-","m2":"0","m2_flag":"-","m3_flag":"-","m4_flag":"-","location1":"OHIO","sort_order":"20225100018","geocode":{"type":"Point","coordinates":[-83.00276,39.96199]}}
        ,{"states":"WISCONSIN","year":"2022","week":"51","label":"Anthrax","m1_flag":"-","m2":"0","m2_flag":"-","m3_flag":"-","m4_flag":"-","location1":"WISCONSIN","sort_order":"20225100019","geocode":{"type":"Point","coordinates":[-89.38645,43.07313]}}
        ,{"states":"WEST NORTH CENTRAL","year":"2022","week":"51","label":"Anthrax","m1_flag":"-","m2":"0","m2_flag":"-","m3_flag":"-","m4_flag":"-","location2":"WEST NORTH CENTRAL","sort_order":"20225100020"}
        ,{"states":"IOWA","year":"2022","week":"51","label":"Anthrax","m1_flag":"-","m2":"0","m2_flag":"-","m3_flag":"-","m4_flag":"-","location1":"IOWA","sort_order":"20225100021","geocode":{"type":"Point","coordinates":[-93.61539,41.58981]}}
        ,{"states":"KANSAS","year":"2022","week":"51","label":"Anthrax","m1_flag":"-","m2":"0","m2_flag":"-","m3_flag":"-","m4_flag":"-","location1":"KANSAS","sort_order":"20225100022","geocode":{"type":"Point","coordinates":[-95.67119,39.04928]}}
        ,{"states":"MINNESOTA","year":"2022","week":"51","label":"Anthrax","m1_flag":"-","m2":"0","m2_flag":"-","m3_flag":"-","m4_flag":"-","location1":"MINNESOTA","sort_order":"20225100023","geocode":{"type":"Point","coordinates":[-93.09649,44.94339]}}
        ,{"states":"MISSOURI","year":"2022","week":"51","label":"Anthrax","m1_flag":"-","m2":"0","m2_flag":"-","m3_flag":"-","m4_flag":"-","location1":"MISSOURI","sort_order":"20225100024","geocode":{"type":"Point","coordinates":[-92.17785,38.57751]}}
        ,{"states":"NEBRASKA","year":"2022","week":"51","label":"Anthrax","m1_flag":"-","m2":"0","m2_flag":"-","m3_flag":"-","m4_flag":"-","location1":"NEBRASKA","sort_order":"20225100025","geocode":{"type":"Point","coordinates":[-96.70731,40.81362]}}
        ,{"states":"NORTH DAKOTA","year":"2022","week":"51","label":"Anthrax","m1_flag":"-","m2":"0","m2_flag":"-","m3_flag":"-","m4_flag":"-","location1":"NORTH DAKOTA","sort_order":"20225100026","geocode":{"type":"Point","coordinates":[-100.77969,46.80536]}}
        ,{"states":"SOUTH DAKOTA","year":"2022","week":"51","label":"Anthrax","m1_flag":"-","m2":"0","m2_flag":"-","m3_flag":"-","m4_flag":"-","location1":"SOUTH DAKOTA","sort_order":"20225100027","geocode":{"type":"Point","coordinates":[-100.34987,44.36917]}}
        ,{"states":"SOUTH ATLANTIC","year":"2022","week":"51","label":"Anthrax","m1_flag":"-","m2":"0","m2_flag":"-","m3_flag":"-","m4_flag":"-","location2":"SOUTH ATLANTIC","sort_order":"20225100028"}
        ,{"states":"DELAWARE","year":"2022","week":"51","label":"Anthrax","m1_flag":"-","m2":"0","m2_flag":"-","m3_flag":"-","m4_flag":"-","location1":"DELAWARE","sort_order":"20225100029","geocode":{"type":"Point","coordinates":[-75.52474,39.15803]}}
        ,{"states":"DISTRICT OF COLUMBIA","year":"2022","week":"51","label":"Anthrax","m1_flag":"-","m2":"0","m2_flag":"-","m3_flag":"-","m4_flag":"-","location1":"DISTRICT OF COLUMBIA","sort_order":"20225100030"}
        ,{"states":"FLORIDA","year":"2022","week":"51","label":"Anthrax","m1_flag":"-","m2":"0","m2_flag":"-","m3_flag":"-","m4_flag":"-","location1":"FLORIDA","sort_order":"20225100031","geocode":{"type":"Point","coordinates":[-84.28065,30.43977]}}
        ,{"states":"GEORGIA","year":"2022","week":"51","label":"Anthrax","m1_flag":"-","m2":"0","m2_flag":"-","m3_flag":"-","m4_flag":"-","location1":"GEORGIA","sort_order":"20225100032","geocode":{"type":"Point","coordinates":[-84.39111,33.74831]}}
        ,{"states":"MARYLAND","year":"2022","week":"51","label":"Anthrax","m1_flag":"-","m2":"0","m2_flag":"-","m3_flag":"-","m4_flag":"-","location1":"MARYLAND","sort_order":"20225100033","geocode":{"type":"Point","coordinates":[-76.49015,38.97678]}}
        ,{"states":"NORTH CAROLINA","year":"2022","week":"51","label":"Anthrax","m1_flag":"-","m2":"0","m2_flag":"-","m3_flag":"-","m4_flag":"-","location1":"NORTH CAROLINA","sort_order":"20225100034","geocode":{"type":"Point","coordinates":[-78.6427,35.78547]}}
        ,{"states":"SOUTH CAROLINA","year":"2022","week":"51","label":"Anthrax","m1_flag":"-","m2":"0","m2_flag":"-","m3_flag":"-","m4_flag":"-","location1":"SOUTH CAROLINA","sort_order":"20225100035","geocode":{"type":"Point","coordinates":[-81.04537,33.99882]}}
        ,{"states":"VIRGINIA","year":"2022","week":"51","label":"Anthrax","m1_flag":"-","m2":"0","m2_flag":"-","m3_flag":"-","m4_flag":"-","location1":"VIRGINIA","sort_order":"20225100036","geocode":{"type":"Point","coordinates":[-77.43367,37.54068]}}
        ,{"states":"WEST VIRGINIA","year":"2022","week":"51","label":"Anthrax","m1_flag":"-","m2":"0","m2_flag":"-","m3_flag":"-","m4_flag":"-","location1":"WEST VIRGINIA","sort_order":"20225100037","geocode":{"type":"Point","coordinates":[-81.63896,38.35016]}}
        ,{"states":"EAST SOUTH CENTRAL","year":"2022","week":"51","label":"Anthrax","m1_flag":"-","m2":"0","m2_flag":"-","m3_flag":"-","m4_flag":"-","location2":"EAST SOUTH CENTRAL","sort_order":"20225100038"}
        ,{"states":"ALABAMA","year":"2022","week":"51","label":"Anthrax","m1_flag":"-","m2":"0","m2_flag":"-","m3_flag":"-","m4_flag":"-","location1":"ALABAMA","sort_order":"20225100039","geocode":{"type":"Point","coordinates":[-86.30006,32.38015]}}
        ,{"states":"KENTUCKY","year":"2022","week":"51","label":"Anthrax","m1_flag":"-","m2":"0","m2_flag":"-","m3_flag":"-","m4_flag":"-","location1":"KENTUCKY","sort_order":"20225100040","geocode":{"type":"Point","coordinates":[-84.8787,38.19507]}}
        ,{"states":"MISSISSIPPI","year":"2022","week":"51","label":"Anthrax","m1_flag":"-","m2":"0","m2_flag":"-","m3_flag":"-","m4_flag":"-","location1":"MISSISSIPPI","sort_order":"20225100041","geocode":{"type":"Point","coordinates":[-90.18045,32.29896]}}
        ,{"states":"TENNESSEE","year":"2022","week":"51","label":"Anthrax","m1_flag":"-","m2":"0","m2_flag":"-","m3_flag":"-","m4_flag":"-","location1":"TENNESSEE","sort_order":"20225100042","geocode":{"type":"Point","coordinates":[-86.77817,36.16784]}}
        ,{"states":"WEST SOUTH CENTRAL","year":"2022","week":"51","label":"Anthrax","m1_flag":"-","m2":"0","m2_flag":"-","m3_flag":"-","m4_flag":"-","location2":"WEST SOUTH CENTRAL","sort_order":"20225100043"}
        ,{"states":"ARKANSAS","year":"2022","week":"51","label":"Anthrax","m1_flag":"-","m2":"0","m2_flag":"-","m3_flag":"-","m4_flag":"-","location1":"ARKANSAS","sort_order":"20225100044","geocode":{"type":"Point","coordinates":[-92.27486,34.7487]}}
        ,{"states":"LOUISIANA","year":"2022","week":"51","label":"Anthrax","m1_flag":"-","m2":"0","m2_flag":"-","m3_flag":"-","m4_flag":"-","location1":"LOUISIANA","sort_order":"20225100045","geocode":{"type":"Point","coordinates":[-91.18665,30.44335]}}
        ,{"states":"OKLAHOMA","year":"2022","week":"51","label":"Anthrax","m1_flag":"-","m2":"0","m2_flag":"-","m3_flag":"-","m4_flag":"-","location1":"OKLAHOMA","sort_order":"20225100046","geocode":{"type":"Point","coordinates":[-97.52107,35.47203]}}
        ,{"states":"TEXAS","year":"2022","week":"51","label":"Anthrax","m1_flag":"-","m2":"0","m2_flag":"-","m3_flag":"-","m4_flag":"-","location1":"TEXAS","sort_order":"20225100047","geocode":{"type":"Point","coordinates":[-97.743,30.26759]}}
        ,{"states":"MOUNTAIN","year":"2022","week":"51","label":"Anthrax","m1_flag":"-","m2":"0","m2_flag":"-","m3_flag":"-","m4_flag":"-","location2":"MOUNTAIN","sort_order":"20225100048"}
        ,{"states":"ARIZONA","year":"2022","week":"51","label":"Anthrax","m1_flag":"-","m2":"0","m2_flag":"-","m3_flag":"-","m4_flag":"-","location1":"ARIZONA","sort_order":"20225100049","geocode":{"type":"Point","coordinates":[-112.07581,33.44825]}}
        ,{"states":"COLORADO","year":"2022","week":"51","label":"Anthrax","m1_flag":"-","m2":"0","m2_flag":"-","m3_flag":"-","m4_flag":"-","location1":"COLORADO","sort_order":"20225100050","geocode":{"type":"Point","coordinates":[-104.99203,39.74001]}}
        ,{"states":"IDAHO","year":"2022","week":"51","label":"Anthrax","m1_flag":"-","m2":"0","m2_flag":"-","m3_flag":"-","m4_flag":"-","location1":"IDAHO","sort_order":"20225100051","geocode":{"type":"Point","coordinates":[-116.19341,43.60764]}}
        ,{"states":"MONTANA","year":"2022","week":"51","label":"Anthrax","m1_flag":"-","m2":"0","m2_flag":"-","m3_flag":"-","m4_flag":"-","location1":"MONTANA","sort_order":"20225100052","geocode":{"type":"Point","coordinates":[-112.02066,46.58976]}}
        ,{"states":"NEVADA","year":"2022","week":"51","label":"Anthrax","m1_flag":"-","m2":"0","m2_flag":"-","m3_flag":"-","m4_flag":"-","location1":"NEVADA","sort_order":"20225100053","geocode":{"type":"Point","coordinates":[-119.76698,39.16505]}}
        ,{"states":"NEW MEXICO","year":"2022","week":"51","label":"Anthrax","m1_flag":"-","m2":"0","m2_flag":"-","m3_flag":"-","m4_flag":"-","location1":"NEW MEXICO","sort_order":"20225100054","geocode":{"type":"Point","coordinates":[-105.93825,35.69177]}}
        ,{"states":"UTAH","year":"2022","week":"51","label":"Anthrax","m1_flag":"-","m2":"0","m2_flag":"-","m3_flag":"-","m4_flag":"-","location1":"UTAH","sort_order":"20225100055","geocode":{"type":"Point","coordinates":[-111.88822,40.76031]}}
        ,{"states":"WYOMING","year":"2022","week":"51","label":"Anthrax","m1_flag":"-","m2":"0","m2_flag":"-","m3_flag":"-","m4_flag":"-","location1":"WYOMING","sort_order":"20225100056","geocode":{"type":"Point","coordinates":[-104.82155,41.13481]}}
        ,{"states":"PACIFIC","year":"2022","week":"51","label":"Anthrax","m1_flag":"-","m2":"0","m2_flag":"-","m3_flag":"-","m4_flag":"-","location2":"PACIFIC","sort_order":"20225100057"}
        ,{"states":"ALASKA","year":"2022","week":"51","label":"Anthrax","m1_flag":"-","m2":"0","m2_flag":"-","m3_flag":"-","m4_flag":"-","location1":"ALASKA","sort_order":"20225100058","geocode":{"type":"Point","coordinates":[-134.40679,58.29973]}}
        ,{"states":"CALIFORNIA","year":"2022","week":"51","label":"Anthrax","m1_flag":"-","m2":"0","m2_flag":"-","m3_flag":"-","m4_flag":"-","location1":"CALIFORNIA","sort_order":"20225100059","geocode":{"type":"Point","coordinates":[-121.49086,38.57944]}}
        ,{"states":"HAWAII","year":"2022","week":"51","label":"Anthrax","m1_flag":"-","m2":"0","m2_flag":"-","m3_flag":"-","m4_flag":"-","location1":"HAWAII","sort_order":"20225100060","geocode":{"type":"Point","coordinates":[-157.85788,21.30493]}}
        ,{"states":"OREGON","year":"2022","week":"51","label":"Anthrax","m1_flag":"-","m2":"0","m2_flag":"-","m3_flag":"-","m4_flag":"-","location1":"OREGON","sort_order":"20225100061","geocode":{"type":"Point","coordinates":[-123.04382,44.93326]}}
        ,{"states":"WASHINGTON","year":"2022","week":"51","label":"Anthrax","m1_flag":"-","m2":"0","m2_flag":"-","m3_flag":"-","m4_flag":"-","location1":"WASHINGTON","sort_order":"20225100062","geocode":{"type":"Point","coordinates":[-122.89167,47.03956]}}
        ,{"states":"US TERRITORIES","year":"2022","week":"51","label":"Anthrax","m1_flag":"-","m2":"0","m2_flag":"-","m3_flag":"-","m4_flag":"-","location2":"US TERRITORIES","sort_order":"20225100063"}
        ,{"states":"AMERICAN SAMOA","year":"2022","week":"51","label":"Anthrax","m1_flag":"-","m2":"0","m2_flag":"-","m3_flag":"-","m4_flag":"-","location1":"AMERICAN SAMOA","sort_order":"20225100064"}
        ,{"states":"NORTHERN MARIANA ISLANDS","year":"2022","week":"51","label":"Anthrax","m1_flag":"-","m2":"0","m2_flag":"-","m3_flag":"-","m4_flag":"-","location1":"NORTHERN MARIANA ISLANDS","sort_order":"20225100065"}
        ,{"states":"GUAM","year":"2022","week":"51","label":"Anthrax","m1_flag":"-","m2":"0","m2_flag":"-","m3_flag":"-","m4_flag":"-","location1":"GUAM","sort_order":"20225100066"}
        ,{"states":"PUERTO RICO","year":"2022","week":"51","label":"Anthrax","m1_flag":"-","m2":"0","m2_flag":"-","m3_flag":"-","m4_flag":"-","location1":"PUERTO RICO","sort_order":"20225100067","geocode":{"type":"Point","coordinates":[-66.10474,18.46633]}}
        ,{"states":"U.S. VIRGIN ISLANDS","year":"2022","week":"51","label":"Anthrax","m1_flag":"-","m2":"0","m2_flag":"-","m3_flag":"-","m4_flag":"-","location1":"U.S. VIRGIN ISLANDS","sort_order":"20225100068"}
        ,{"states":"NON-US RESIDENTS","year":"2022","week":"51","label":"Anthrax","m1_flag":"-","m2":"0","m2_flag":"-","m3_flag":"-","m4_flag":"-","location2":"NON-US RESIDENTS","sort_order":"20225100069"}
        ,{"states":"TOTAL","year":"2022","week":"51","label":"Anthrax","m1_flag":"-","m2":"0","m2_flag":"-","m3_flag":"-","m4_flag":"-","location2":"TOTAL","sort_order":"20225100070"}
        ,{"states":"US RESIDENTS","year":"2022","week":"51","label":"Arboviral diseases, Chikungunya virus disease","m1_flag":"-","m2":"4","m2_flag":"-","m3":"49","m3_flag":"-","m4":"35","m4_flag":"-","location2":"US RESIDENTS","sort_order":"20225100071"}
        ,{"states":"NEW ENGLAND","year":"2022","week":"51","label":"Arboviral diseases, Chikungunya virus disease","m1_flag":"-","m2":"1","m2_flag":"-","m3":"4","m3_flag":"-","m4":"1","m4_flag":"-","location2":"NEW ENGLAND","sort_order":"20225100072"}
        ,{"states":"CONNECTICUT","year":"2022","week":"51","label":"Arboviral diseases, Chikungunya virus disease","m1_flag":"-","m2":"0","m2_flag":"-","m3_flag":"-","m4_flag":"-","location1":"CONNECTICUT","sort_order":"20225100073","geocode":{"type":"Point","coordinates":[-72.67399,41.76376]}}
        ,{"states":"MAINE","year":"2022","week":"51","label":"Arboviral diseases, Chikungunya virus disease","m1_flag":"-","m2":"0","m2_flag":"-","m3_flag":"-","m4_flag":"-","location1":"MAINE","sort_order":"20225100074","geocode":{"type":"Point","coordinates":[-69.77631,44.31804]}}
        ,{"states":"MASSACHUSETTS","year":"2022","week":"51","label":"Arboviral diseases, Chikungunya virus disease","m1_flag":"-","m2":"1","m2_flag":"-","m3":"2","m3_flag":"-","m4":"1","m4_flag":"-","location1":"MASSACHUSETTS","sort_order":"20225100075","geocode":{"type":"Point","coordinates":[-71.05675,42.35866]}}
        ,{"states":"NEW HAMPSHIRE","year":"2022","week":"51","label":"Arboviral diseases, Chikungunya virus disease","m1_flag":"-","m2":"1","m2_flag":"-","m3":"1","m3_flag":"-","m4_flag":"-","location1":"NEW HAMPSHIRE","sort_order":"20225100076","geocode":{"type":"Point","coordinates":[-71.53661,43.20725]}}
        ,{"states":"RHODE ISLAND","year":"2022","week":"51","label":"Arboviral diseases, Chikungunya virus disease","m1_flag":"-","m2":"0","m2_flag":"-","m3_flag":"-","m4_flag":"-","location1":"RHODE ISLAND","sort_order":"20225100077","geocode":{"type":"Point","coordinates":[-71.41198,41.82388]}}
        ,{"states":"VERMONT","year":"2022","week":"51","label":"Arboviral diseases, Chikungunya virus disease","m1_flag":"-","m2":"1","m2_flag":"-","m3":"1","m3_flag":"-","m4_flag":"-","location1":"VERMONT","sort_order":"20225100078","geocode":{"type":"Point","coordinates":[-72.57627,44.26029]}}
        ,{"states":"MIDDLE ATLANTIC","year":"2022","week":"51","label":"Arboviral diseases, Chikungunya virus disease","m1_flag":"-","m2":"1","m2_flag":"-","m3":"10","m3_flag":"-","m4":"5","m4_flag":"-","location2":"MIDDLE ATLANTIC","sort_order":"20225100079"}
        ,{"states":"NEW JERSEY","year":"2022","week":"51","label":"Arboviral diseases, Chikungunya virus disease","m1_flag":"-","m2":"1","m2_flag":"-","m3":"1","m3_flag":"-","m4":"4","m4_flag":"-","location1":"NEW JERSEY","sort_order":"20225100080","geocode":{"type":"Point","coordinates":[-74.75942,40.21789]}}
        ,{"states":"NEW YORK","year":"2022","week":"51","label":"Arboviral diseases, Chikungunya virus disease","m1_flag":"-","m2":"1","m2_flag":"-","m3":"3","m3_flag":"-","m4_flag":"-","location1":"NEW YORK","sort_order":"20225100081","geocode":{"type":"Point","coordinates":[-73.75522,42.65155]}}
        ,{"states":"NEW YORK CITY","year":"2022","week":"51","label":"Arboviral diseases, Chikungunya virus disease","m1_flag":"-","m2":"1","m2_flag":"-","m3":"4","m3_flag":"-","m4":"1","m4_flag":"-","location1":"NEW YORK CITY","sort_order":"20225100082","geocode":{"type":"Point","coordinates":[-73.75522,42.65155]}}
        ,{"states":"PENNSYLVANIA","year":"2022","week":"51","label":"Arboviral diseases, Chikungunya virus disease","m1_flag":"-","m2":"1","m2_flag":"-","m3":"2","m3_flag":"-","m4_flag":"-","location1":"PENNSYLVANIA","sort_order":"20225100083","geocode":{"type":"Point","coordinates":[-76.88224,40.25986]}}
        ,{"states":"EAST NORTH CENTRAL","year":"2022","week":"51","label":"Arboviral diseases, Chikungunya virus disease","m1_flag":"-","m2":"2","m2_flag":"-","m3":"9","m3_flag":"-","m4":"2","m4_flag":"-","location2":"EAST NORTH CENTRAL","sort_order":"20225100084"}
        ,{"states":"ILLINOIS","year":"2022","week":"51","label":"Arboviral diseases, Chikungunya virus disease","m1_flag":"-","m2":"2","m2_flag":"-","m3":"8","m3_flag":"-","m4":"1","m4_flag":"-","location1":"ILLINOIS","sort_order":"20225100085","geocode":{"type":"Point","coordinates":[-89.64361,39.8013]}}
        ,{"states":"INDIANA","year":"2022","week":"51","label":"Arboviral diseases, Chikungunya virus disease","m1_flag":"-","m2":"0","m2_flag":"-","m3_flag":"-","m4":"1","m4_flag":"-","location1":"INDIANA","sort_order":"20225100086","geocode":{"type":"Point","coordinates":[-86.15013,39.76691]}}
        ,{"states":"MICHIGAN","year":"2022","week":"51","label":"Arboviral diseases, Chikungunya virus disease","m1_flag":"-","m2":"0","m2_flag":"-","m3_flag":"-","m4_flag":"-","location1":"MICHIGAN","sort_order":"20225100087","geocode":{"type":"Point","coordinates":[-84.55226,42.73194]}}
        ,{"states":"OHIO","year":"2022","week":"51","label":"Arboviral diseases, Chikungunya virus disease","m1_flag":"-","m2":"1","m2_flag":"-","m3":"1","m3_flag":"-","m4_flag":"-","location1":"OHIO","sort_order":"20225100088","geocode":{"type":"Point","coordinates":[-83.00276,39.96199]}}
        ,{"states":"WISCONSIN","year":"2022","week":"51","label":"Arboviral diseases, Chikungunya virus disease","m1_flag":"-","m2":"0","m2_flag":"-","m3_flag":"-","m4_flag":"-","location1":"WISCONSIN","sort_order":"20225100089","geocode":{"type":"Point","coordinates":[-89.38645,43.07313]}}
        ,{"states":"WEST NORTH CENTRAL","year":"2022","week":"51","label":"Arboviral diseases, Chikungunya virus disease","m1_flag":"-","m2":"1","m2_flag":"-","m3":"5","m3_flag":"-","m4":"4","m4_flag":"-","location2":"WEST NORTH CENTRAL","sort_order":"20225100090"}
        ,{"states":"IOWA","year":"2022","week":"51","label":"Arboviral diseases, Chikungunya virus disease","m1_flag":"-","m2":"1","m2_flag":"-","m3":"2","m3_flag":"-","m4_flag":"-","location1":"IOWA","sort_order":"20225100091","geocode":{"type":"Point","coordinates":[-93.61539,41.58981]}}
        ,{"states":"KANSAS","year":"2022","week":"51","label":"Arboviral diseases, Chikungunya virus disease","m1_flag":"-","m2":"1","m2_flag":"-","m3":"1","m3_flag":"-","m4_flag":"-","location1":"KANSAS","sort_order":"20225100092","geocode":{"type":"Point","coordinates":[-95.67119,39.04928]}}
        ,{"states":"MINNESOTA","year":"2022","week":"51","label":"Arboviral diseases, Chikungunya virus disease","m1_flag":"-","m2":"1","m2_flag":"-","m3":"2","m3_flag":"-","m4":"3","m4_flag":"-","location1":"MINNESOTA","sort_order":"20225100093","geocode":{"type":"Point","coordinates":[-93.09649,44.94339]}}
        ,{"states":"MISSOURI","year":"2022","week":"51","label":"Arboviral diseases, Chikungunya virus disease","m1_flag":"-","m2":"0","m2_flag":"-","m3_flag":"-","m4":"1","m4_flag":"-","location1":"MISSOURI","sort_order":"20225100094","geocode":{"type":"Point","coordinates":[-92.17785,38.57751]}}
        ,{"states":"NEBRASKA","year":"2022","week":"51","label":"Arboviral diseases, Chikungunya virus disease","m1_flag":"-","m2":"0","m2_flag":"-","m3_flag":"-","m4_flag":"-","location1":"NEBRASKA","sort_order":"20225100095","geocode":{"type":"Point","coordinates":[-96.70731,40.81362]}}
        ,{"states":"NORTH DAKOTA","year":"2022","week":"51","label":"Arboviral diseases, Chikungunya virus disease","m1_flag":"-","m2":"0","m2_flag":"-","m3_flag":"-","m4_flag":"-","location1":"NORTH DAKOTA","sort_order":"20225100096","geocode":{"type":"Point","coordinates":[-100.77969,46.80536]}}
        ,{"states":"SOUTH DAKOTA","year":"2022","week":"51","label":"Arboviral diseases, Chikungunya virus disease","m1_flag":"-","m2":"0","m2_flag":"-","m3_flag":"-","m4_flag":"-","location1":"SOUTH DAKOTA","sort_order":"20225100097","geocode":{"type":"Point","coordinates":[-100.34987,44.36917]}}
        ,{"states":"SOUTH ATLANTIC","year":"2022","week":"51","label":"Arboviral diseases, Chikungunya virus disease","m1_flag":"-","m2":"1","m2_flag":"-","m3":"7","m3_flag":"-","m4":"6","m4_flag":"-","location2":"SOUTH ATLANTIC","sort_order":"20225100098"}
        ,{"states":"DELAWARE","year":"2022","week":"51","label":"Arboviral diseases, Chikungunya virus disease","m1_flag":"-","m2":"0","m2_flag":"-","m3_flag":"-","m4_flag":"-","location1":"DELAWARE","sort_order":"20225100099","geocode":{"type":"Point","coordinates":[-75.52474,39.15803]}}
        ,{"states":"DISTRICT OF COLUMBIA","year":"2022","week":"51","label":"Arboviral diseases, Chikungunya virus disease","m1_flag":"-","m2":"0","m2_flag":"-","m3_flag":"-","m4_flag":"-","location1":"DISTRICT OF COLUMBIA","sort_order":"20225100100"}
        ,{"states":"FLORIDA","year":"2022","week":"51","label":"Arboviral diseases, Chikungunya virus disease","m1_flag":"-","m2":"0","m2_flag":"-","m3_flag":"-","m4":"1","m4_flag":"-","location1":"FLORIDA","sort_order":"20225100101","geocode":{"type":"Point","coordinates":[-84.28065,30.43977]}}
        ,{"states":"GEORGIA","year":"2022","week":"51","label":"Arboviral diseases, Chikungunya virus disease","m1_flag":"-","m2":"0","m2_flag":"-","m3_flag":"-","m4_flag":"-","location1":"GEORGIA","sort_order":"20225100102","geocode":{"type":"Point","coordinates":[-84.39111,33.74831]}}
        ,{"states":"MARYLAND","year":"2022","week":"51","label":"Arboviral diseases, Chikungunya virus disease","m1_flag":"-","m2":"1","m2_flag":"-","m3":"1","m3_flag":"-","m4_flag":"-","location1":"MARYLAND","sort_order":"20225100103","geocode":{"type":"Point","coordinates":[-76.49015,38.97678]}}
        ,{"states":"NORTH CAROLINA","year":"2022","week":"51","label":"Arboviral diseases, Chikungunya virus disease","m1_flag":"-","m2":"1","m2_flag":"-","m3":"3","m3_flag":"-","m4":"4","m4_flag":"-","location1":"NORTH CAROLINA","sort_order":"20225100104","geocode":{"type":"Point","coordinates":[-78.6427,35.78547]}}
        ,{"states":"SOUTH CAROLINA","year":"2022","week":"51","label":"Arboviral diseases, Chikungunya virus disease","m1_flag":"-","m2":"0","m2_flag":"-","m3_flag":"-","m4":"1","m4_flag":"-","location1":"SOUTH CAROLINA","sort_order":"20225100105","geocode":{"type":"Point","coordinates":[-81.04537,33.99882]}}
        ,{"states":"VIRGINIA","year":"2022","week":"51","label":"Arboviral diseases, Chikungunya virus disease","m1_flag":"-","m2":"1","m2_flag":"-","m3":"3","m3_flag":"-","m4_flag":"-","location1":"VIRGINIA","sort_order":"20225100106","geocode":{"type":"Point","coordinates":[-77.43367,37.54068]}}
        ,{"states":"WEST VIRGINIA","year":"2022","week":"51","label":"Arboviral diseases, Chikungunya virus disease","m1_flag":"-","m2":"0","m2_flag":"-","m3_flag":"-","m4_flag":"-","location1":"WEST VIRGINIA","sort_order":"20225100107","geocode":{"type":"Point","coordinates":[-81.63896,38.35016]}}
        ,{"states":"EAST SOUTH CENTRAL","year":"2022","week":"51","label":"Arboviral diseases, Chikungunya virus disease","m1_flag":"-","m2":"1","m2_flag":"-","m3":"3","m3_flag":"-","m4":"2","m4_flag":"-","location2":"EAST SOUTH CENTRAL","sort_order":"20225100108"}
        ,{"states":"ALABAMA","year":"2022","week":"51","label":"Arboviral diseases, Chikungunya virus disease","m1_flag":"-","m2":"0","m2_flag":"-","m3_flag":"-","m4_flag":"-","location1":"ALABAMA","sort_order":"20225100109","geocode":{"type":"Point","coordinates":[-86.30006,32.38015]}}
        ,{"states":"KENTUCKY","year":"2022","week":"51","label":"Arboviral diseases, Chikungunya virus disease","m1_flag":"-","m2":"1","m2_flag":"-","m3":"1","m3_flag":"-","m4":"1","m4_flag":"-","location1":"KENTUCKY","sort_order":"20225100110","geocode":{"type":"Point","coordinates":[-84.8787,38.19507]}}
        ,{"states":"MISSISSIPPI","year":"2022","week":"51","label":"Arboviral diseases, Chikungunya virus disease","m1_flag":"-","m2":"0","m2_flag":"-","m3_flag":"-","m4_flag":"-","location1":"MISSISSIPPI","sort_order":"20225100111","geocode":{"type":"Point","coordinates":[-90.18045,32.29896]}}
        ,{"states":"TENNESSEE","year":"2022","week":"51","label":"Arboviral diseases, Chikungunya virus disease","m1_flag":"-","m2":"1","m2_flag":"-","m3":"2","m3_flag":"-","m4":"1","m4_flag":"-","location1":"TENNESSEE","sort_order":"20225100112","geocode":{"type":"Point","coordinates":[-86.77817,36.16784]}}
        ,{"states":"WEST SOUTH CENTRAL","year":"2022","week":"51","label":"Arboviral diseases, Chikungunya virus disease","m1_flag":"-","m2":"1","m2_flag":"-","m3":"1","m3_flag":"-","m4":"1","m4_flag":"-","location2":"WEST SOUTH CENTRAL","sort_order":"20225100113"}
        ,{"states":"ARKANSAS","year":"2022","week":"51","label":"Arboviral diseases, Chikungunya virus disease","m1_flag":"-","m2":"0","m2_flag":"-","m3_flag":"-","m4_flag":"-","location1":"ARKANSAS","sort_order":"20225100114","geocode":{"type":"Point","coordinates":[-92.27486,34.7487]}}
        ,{"states":"LOUISIANA","year":"2022","week":"51","label":"Arboviral diseases, Chikungunya virus disease","m1_flag":"-","m2":"1","m2_flag":"-","m3":"1","m3_flag":"-","m4":"1","m4_flag":"-","location1":"LOUISIANA","sort_order":"20225100115","geocode":{"type":"Point","coordinates":[-91.18665,30.44335]}}
        ,{"states":"OKLAHOMA","year":"2022","week":"51","label":"Arboviral diseases, Chikungunya virus disease","m1_flag":"-","m2":"0","m2_flag":"-","m3_flag":"-","m4_flag":"-","location1":"OKLAHOMA","sort_order":"20225100116","geocode":{"type":"Point","coordinates":[-97.52107,35.47203]}}
        ,{"states":"TEXAS","year":"2022","week":"51","label":"Arboviral diseases, Chikungunya virus disease","m1_flag":"-","m2":"0","m2_flag":"-","m3_flag":"-","m4_flag":"-","location1":"TEXAS","sort_order":"20225100117","geocode":{"type":"Point","coordinates":[-97.743,30.26759]}}
        ,{"states":"MOUNTAIN","year":"2022","week":"51","label":"Arboviral diseases, Chikungunya virus disease","m1_flag":"-","m2":"1","m2_flag":"-","m3":"5","m3_flag":"-","m4":"4","m4_flag":"-","location2":"MOUNTAIN","sort_order":"20225100118"}
        ,{"states":"ARIZONA","year":"2022","week":"51","label":"Arboviral diseases, Chikungunya virus disease","m1_flag":"-","m2":"0","m2_flag":"-","m3_flag":"-","m4_flag":"-","location1":"ARIZONA","sort_order":"20225100119","geocode":{"type":"Point","coordinates":[-112.07581,33.44825]}}
        ,{"states":"COLORADO","year":"2022","week":"51","label":"Arboviral diseases, Chikungunya virus disease","m1_flag":"-","m2":"1","m2_flag":"-","m3":"3","m3_flag":"-","m4":"3","m4_flag":"-","location1":"COLORADO","sort_order":"20225100120","geocode":{"type":"Point","coordinates":[-104.99203,39.74001]}}
        ,{"states":"IDAHO","year":"2022","week":"51","label":"Arboviral diseases, Chikungunya virus disease","m1_flag":"-","m2":"0","m2_flag":"-","m3_flag":"-","m4_flag":"-","location1":"IDAHO","sort_order":"20225100121","geocode":{"type":"Point","coordinates":[-116.19341,43.60764]}}
        ,{"states":"MONTANA","year":"2022","week":"51","label":"Arboviral diseases, Chikungunya virus disease","m1_flag":"-","m2":"0","m2_flag":"-","m3_flag":"-","m4_flag":"-","location1":"MONTANA","sort_order":"20225100122","geocode":{"type":"Point","coordinates":[-112.02066,46.58976]}}
        ,{"states":"NEVADA","year":"2022","week":"51","label":"Arboviral diseases, Chikungunya virus disease","m1_flag":"-","m2":"0","m2_flag":"-","m3_flag":"-","m4_flag":"-","location1":"NEVADA","sort_order":"20225100123","geocode":{"type":"Point","coordinates":[-119.76698,39.16505]}}
        ,{"states":"NEW MEXICO","year":"2022","week":"51","label":"Arboviral diseases, Chikungunya virus disease","m1_flag":"-","m2":"1","m2_flag":"-","m3":"1","m3_flag":"-","m4":"1","m4_flag":"-","location1":"NEW MEXICO","sort_order":"20225100124","geocode":{"type":"Point","coordinates":[-105.93825,35.69177]}}
        ,{"states":"UTAH","year":"2022","week":"51","label":"Arboviral diseases, Chikungunya virus disease","m1_flag":"-","m2":"1","m2_flag":"-","m3":"1","m3_flag":"-","m4_flag":"-","location1":"UTAH","sort_order":"20225100125","geocode":{"type":"Point","coordinates":[-111.88822,40.76031]}}
        ,{"states":"WYOMING","year":"2022","week":"51","label":"Arboviral diseases, Chikungunya virus disease","m1_flag":"-","m2":"0","m2_flag":"-","m3_flag":"-","m4_flag":"-","location1":"WYOMING","sort_order":"20225100126","geocode":{"type":"Point","coordinates":[-104.82155,41.13481]}}
        ,{"states":"PACIFIC","year":"2022","week":"51","label":"Arboviral diseases, Chikungunya virus disease","m1_flag":"-","m2":"1","m2_flag":"-","m3":"5","m3_flag":"-","m4":"10","m4_flag":"-","location2":"PACIFIC","sort_order":"20225100127"}
        ,{"states":"ALASKA","year":"2022","week":"51","label":"Arboviral diseases, Chikungunya virus disease","m1_flag":"-","m2":"0","m2_flag":"-","m3_flag":"-","m4_flag":"-","location1":"ALASKA","sort_order":"20225100128","geocode":{"type":"Point","coordinates":[-134.40679,58.29973]}}
        ,{"states":"CALIFORNIA","year":"2022","week":"51","label":"Arboviral diseases, Chikungunya virus disease","m1_flag":"-","m2":"1","m2_flag":"-","m3":"4","m3_flag":"-","m4":"7","m4_flag":"-","location1":"CALIFORNIA","sort_order":"20225100129","geocode":{"type":"Point","coordinates":[-121.49086,38.57944]}}
        ,{"states":"HAWAII","year":"2022","week":"51","label":"Arboviral diseases, Chikungunya virus disease","m1_flag":"-","m2":"0","m2_flag":"-","m3_flag":"-","m4_flag":"-","location1":"HAWAII","sort_order":"20225100130","geocode":{"type":"Point","coordinates":[-157.85788,21.30493]}}
        ,{"states":"OREGON","year":"2022","week":"51","label":"Arboviral diseases, Chikungunya virus disease","m1_flag":"-","m2":"0","m2_flag":"-","m3_flag":"-","m4":"1","m4_flag":"-","location1":"OREGON","sort_order":"20225100131","geocode":{"type":"Point","coordinates":[-123.04382,44.93326]}}
        ,{"states":"WASHINGTON","year":"2022","week":"51","label":"Arboviral diseases, Chikungunya virus disease","m1_flag":"-","m2":"1","m2_flag":"-","m3":"1","m3_flag":"-","m4":"2","m4_flag":"-","location1":"WASHINGTON","sort_order":"20225100132","geocode":{"type":"Point","coordinates":[-122.89167,47.03956]}}
        ,{"states":"US TERRITORIES","year":"2022","week":"51","label":"Arboviral diseases, Chikungunya virus disease","m1_flag":"-","m2":"0","m2_flag":"-","m3_flag":"-","m4_flag":"-","location2":"US TERRITORIES","sort_order":"20225100133"}
        ,{"states":"AMERICAN SAMOA","year":"2022","week":"51","label":"Arboviral diseases, Chikungunya virus disease","m1_flag":"-","m2":"0","m2_flag":"-","m3_flag":"-","m4_flag":"-","location1":"AMERICAN SAMOA","sort_order":"20225100134"}
        ,{"states":"NORTHERN MARIANA ISLANDS","year":"2022","week":"51","label":"Arboviral diseases, Chikungunya virus disease","m1_flag":"-","m2":"0","m2_flag":"-","m3_flag":"-","m4_flag":"-","location1":"NORTHERN MARIANA ISLANDS","sort_order":"20225100135"}
        ,{"states":"GUAM","year":"2022","week":"51","label":"Arboviral diseases, Chikungunya virus disease","m1_flag":"-","m2":"0","m2_flag":"-","m3_flag":"-","m4_flag":"-","location1":"GUAM","sort_order":"20225100136"}
        ,{"states":"PUERTO RICO","year":"2022","week":"51","label":"Arboviral diseases, Chikungunya virus disease","m1_flag":"-","m2":"0","m2_flag":"-","m3_flag":"-","m4_flag":"-","location1":"PUERTO RICO","sort_order":"20225100137","geocode":{"type":"Point","coordinates":[-66.10474,18.46633]}}
        ,{"states":"U.S. VIRGIN ISLANDS","year":"2022","week":"51","label":"Arboviral diseases, Chikungunya virus disease","m1_flag":"-","m2":"0","m2_flag":"-","m3_flag":"-","m4_flag":"-","location1":"U.S. VIRGIN ISLANDS","sort_order":"20225100138"}
        ,{"states":"NON-US RESIDENTS","year":"2022","week":"51","label":"Arboviral diseases, Chikungunya virus disease","m1_flag":"-","m2":"0","m2_flag":"-","m3_flag":"-","m4_flag":"-","location2":"NON-US RESIDENTS","sort_order":"20225100139"}
        ,{"states":"TOTAL","year":"2022","week":"51","label":"Arboviral diseases, Chikungunya virus disease","m1_flag":"-","m2":"4","m2_flag":"-","m3":"49","m3_flag":"-","m4":"35","m4_flag":"-","location2":"TOTAL","sort_order":"20225100140"}
        ,{"states":"US RESIDENTS","year":"2022","week":"51","label":"Arboviral diseases, Eastern equine encephalitis virus disease","m1_flag":"-","m2":"1","m2_flag":"-","m3":"1","m3_flag":"-","m4":"5","m4_flag":"-","location2":"US RESIDENTS","sort_order":"20225100141"}
        ,{"states":"NEW ENGLAND","year":"2022","week":"51","label":"Arboviral diseases, Eastern equine encephalitis virus disease","m1_flag":"-","m2":"0","m2_flag":"-","m3_flag":"-","m4_flag":"-","location2":"NEW ENGLAND","sort_order":"20225100142"}
        ,{"states":"CONNECTICUT","year":"2022","week":"51","label":"Arboviral diseases, Eastern equine encephalitis virus disease","m1_flag":"-","m2":"0","m2_flag":"-","m3_flag":"-","m4_flag":"-","location1":"CONNECTICUT","sort_order":"20225100143","geocode":{"type":"Point","coordinates":[-72.67399,41.76376]}}
        ,{"states":"MAINE","year":"2022","week":"51","label":"Arboviral diseases, Eastern equine encephalitis virus disease","m1_flag":"-","m2":"0","m2_flag":"-","m3_flag":"-","m4_flag":"-","location1":"MAINE","sort_order":"20225100144","geocode":{"type":"Point","coordinates":[-69.77631,44.31804]}}
        ,{"states":"MASSACHUSETTS","year":"2022","week":"51","label":"Arboviral diseases, Eastern equine encephalitis virus disease","m1_flag":"-","m2":"0","m2_flag":"-","m3_flag":"-","m4_flag":"-","location1":"MASSACHUSETTS","sort_order":"20225100145","geocode":{"type":"Point","coordinates":[-71.05675,42.35866]}}
        ,{"states":"NEW HAMPSHIRE","year":"2022","week":"51","label":"Arboviral diseases, Eastern equine encephalitis virus disease","m1_flag":"-","m2":"0","m2_flag":"-","m3_flag":"-","m4_flag":"-","location1":"NEW HAMPSHIRE","sort_order":"20225100146","geocode":{"type":"Point","coordinates":[-71.53661,43.20725]}}
        ,{"states":"RHODE ISLAND","year":"2022","week":"51","label":"Arboviral diseases, Eastern equine encephalitis virus disease","m1_flag":"-","m2":"0","m2_flag":"-","m3_flag":"-","m4_flag":"-","location1":"RHODE ISLAND","sort_order":"20225100147","geocode":{"type":"Point","coordinates":[-71.41198,41.82388]}}
        ,{"states":"VERMONT","year":"2022","week":"51","label":"Arboviral diseases, Eastern equine encephalitis virus disease","m1_flag":"-","m2":"0","m2_flag":"-","m3_flag":"-","m4_flag":"-","location1":"VERMONT","sort_order":"20225100148","geocode":{"type":"Point","coordinates":[-72.57627,44.26029]}}
        ,{"states":"MIDDLE ATLANTIC","year":"2022","week":"51","label":"Arboviral diseases, Eastern equine encephalitis virus disease","m1_flag":"-","m2":"0","m2_flag":"-","m3_flag":"-","m4_flag":"-","location2":"MIDDLE ATLANTIC","sort_order":"20225100149"}
        ,{"states":"NEW JERSEY","year":"2022","week":"51","label":"Arboviral diseases, Eastern equine encephalitis virus disease","m1_flag":"-","m2":"0","m2_flag":"-","m3_flag":"-","m4_flag":"-","location1":"NEW JERSEY","sort_order":"20225100150","geocode":{"type":"Point","coordinates":[-74.75942,40.21789]}}
        ,{"states":"NEW YORK","year":"2022","week":"51","label":"Arboviral diseases, Eastern equine encephalitis virus disease","m1_flag":"-","m2":"0","m2_flag":"-","m3_flag":"-","m4_flag":"-","location1":"NEW YORK","sort_order":"20225100151","geocode":{"type":"Point","coordinates":[-73.75522,42.65155]}}
        ,{"states":"NEW YORK CITY","year":"2022","week":"51","label":"Arboviral diseases, Eastern equine encephalitis virus disease","m1_flag":"-","m2":"0","m2_flag":"-","m3_flag":"-","m4_flag":"-","location1":"NEW YORK CITY","sort_order":"20225100152","geocode":{"type":"Point","coordinates":[-73.75522,42.65155]}}
        ,{"states":"PENNSYLVANIA","year":"2022","week":"51","label":"Arboviral diseases, Eastern equine encephalitis virus disease","m1_flag":"-","m2":"0","m2_flag":"-","m3_flag":"-","m4_flag":"-","location1":"PENNSYLVANIA","sort_order":"20225100153","geocode":{"type":"Point","coordinates":[-76.88224,40.25986]}}
        ,{"states":"EAST NORTH CENTRAL","year":"2022","week":"51","label":"Arboviral diseases, Eastern equine encephalitis virus disease","m1_flag":"-","m2":"1","m2_flag":"-","m3":"1","m3_flag":"-","m4":"2","m4_flag":"-","location2":"EAST NORTH CENTRAL","sort_order":"20225100154"}
        ,{"states":"ILLINOIS","year":"2022","week":"51","label":"Arboviral diseases, Eastern equine encephalitis virus disease","m1_flag":"-","m2":"0","m2_flag":"-","m3_flag":"-","m4_flag":"-","location1":"ILLINOIS","sort_order":"20225100155","geocode":{"type":"Point","coordinates":[-89.64361,39.8013]}}
        ,{"states":"INDIANA","year":"2022","week":"51","label":"Arboviral diseases, Eastern equine encephalitis virus disease","m1_flag":"-","m2":"0","m2_flag":"-","m3_flag":"-","m4_flag":"-","location1":"INDIANA","sort_order":"20225100156","geocode":{"type":"Point","coordinates":[-86.15013,39.76691]}}
        ,{"states":"MICHIGAN","year":"2022","week":"51","label":"Arboviral diseases, Eastern equine encephalitis virus disease","m1_flag":"-","m2":"0","m2_flag":"-","m3_flag":"-","m4":"1","m4_flag":"-","location1":"MICHIGAN","sort_order":"20225100157","geocode":{"type":"Point","coordinates":[-84.55226,42.73194]}}
        ,{"states":"OHIO","year":"2022","week":"51","label":"Arboviral diseases, Eastern equine encephalitis virus disease","m1_flag":"-","m2":"0","m2_flag":"-","m3_flag":"-","m4_flag":"-","location1":"OHIO","sort_order":"20225100158","geocode":{"type":"Point","coordinates":[-83.00276,39.96199]}}
        ,{"states":"WISCONSIN","year":"2022","week":"51","label":"Arboviral diseases, Eastern equine encephalitis virus disease","m1_flag":"-","m2":"1","m2_flag":"-","m3":"1","m3_flag":"-","m4":"1","m4_flag":"-","location1":"WISCONSIN","sort_order":"20225100159","geocode":{"type":"Point","coordinates":[-89.38645,43.07313]}}
        ,{"states":"WEST NORTH CENTRAL","year":"2022","week":"51","label":"Arboviral diseases, Eastern equine encephalitis virus disease","m1_flag":"-","m2":"0","m2_flag":"-","m3_flag":"-","m4_flag":"-","location2":"WEST NORTH CENTRAL","sort_order":"20225100160"}
        ,{"states":"IOWA","year":"2022","week":"51","label":"Arboviral diseases, Eastern equine encephalitis virus disease","m1_flag":"-","m2":"0","m2_flag":"-","m3_flag":"-","m4_flag":"-","location1":"IOWA","sort_order":"20225100161","geocode":{"type":"Point","coordinates":[-93.61539,41.58981]}}
        ,{"states":"KANSAS","year":"2022","week":"51","label":"Arboviral diseases, Eastern equine encephalitis virus disease","m1_flag":"-","m2":"0","m2_flag":"-","m3_flag":"-","m4_flag":"-","location1":"KANSAS","sort_order":"20225100162","geocode":{"type":"Point","coordinates":[-95.67119,39.04928]}}
        ,{"states":"MINNESOTA","year":"2022","week":"51","label":"Arboviral diseases, Eastern equine encephalitis virus disease","m1_flag":"-","m2":"0","m2_flag":"-","m3_flag":"-","m4_flag":"-","location1":"MINNESOTA","sort_order":"20225100163","geocode":{"type":"Point","coordinates":[-93.09649,44.94339]}}
        ,{"states":"MISSOURI","year":"2022","week":"51","label":"Arboviral diseases, Eastern equine encephalitis virus disease","m1_flag":"-","m2":"0","m2_flag":"-","m3_flag":"-","m4_flag":"-","location1":"MISSOURI","sort_order":"20225100164","geocode":{"type":"Point","coordinates":[-92.17785,38.57751]}}
        ,{"states":"NEBRASKA","year":"2022","week":"51","label":"Arboviral diseases, Eastern equine encephalitis virus disease","m1_flag":"-","m2":"0","m2_flag":"-","m3_flag":"-","m4_flag":"-","location1":"NEBRASKA","sort_order":"20225100165","geocode":{"type":"Point","coordinates":[-96.70731,40.81362]}}
        ,{"states":"NORTH DAKOTA","year":"2022","week":"51","label":"Arboviral diseases, Eastern equine encephalitis virus disease","m1_flag":"-","m2":"0","m2_flag":"-","m3_flag":"-","m4_flag":"-","location1":"NORTH DAKOTA","sort_order":"20225100166","geocode":{"type":"Point","coordinates":[-100.77969,46.80536]}}
        ,{"states":"SOUTH DAKOTA","year":"2022","week":"51","label":"Arboviral diseases, Eastern equine encephalitis virus disease","m1_flag":"-","m2":"0","m2_flag":"-","m3_flag":"-","m4_flag":"-","location1":"SOUTH DAKOTA","sort_order":"20225100167","geocode":{"type":"Point","coordinates":[-100.34987,44.36917]}}
        ,{"states":"SOUTH ATLANTIC","year":"2022","week":"51","label":"Arboviral diseases, Eastern equine encephalitis virus disease","m1_flag":"-","m2":"0","m2_flag":"-","m3_flag":"-","m4":"3","m4_flag":"-","location2":"SOUTH ATLANTIC","sort_order":"20225100168"}
        ,{"states":"DELAWARE","year":"2022","week":"51","label":"Arboviral diseases, Eastern equine encephalitis virus disease","m1_flag":"-","m2":"0","m2_flag":"-","m3_flag":"-","m4_flag":"-","location1":"DELAWARE","sort_order":"20225100169","geocode":{"type":"Point","coordinates":[-75.52474,39.15803]}}
        ,{"states":"DISTRICT OF COLUMBIA","year":"2022","week":"51","label":"Arboviral diseases, Eastern equine encephalitis virus disease","m1_flag":"-","m2":"0","m2_flag":"-","m3_flag":"-","m4_flag":"-","location1":"DISTRICT OF COLUMBIA","sort_order":"20225100170"}
        ,{"states":"FLORIDA","year":"2022","week":"51","label":"Arboviral diseases, Eastern equine encephalitis virus disease","m1_flag":"-","m2":"0","m2_flag":"-","m3_flag":"-","m4_flag":"-","location1":"FLORIDA","sort_order":"20225100171","geocode":{"type":"Point","coordinates":[-84.28065,30.43977]}}
        ,{"states":"GEORGIA","year":"2022","week":"51","label":"Arboviral diseases, Eastern equine encephalitis virus disease","m1_flag":"-","m2":"0","m2_flag":"-","m3_flag":"-","m4":"2","m4_flag":"-","location1":"GEORGIA","sort_order":"20225100172","geocode":{"type":"Point","coordinates":[-84.39111,33.74831]}}
        ,{"states":"MARYLAND","year":"2022","week":"51","label":"Arboviral diseases, Eastern equine encephalitis virus disease","m1_flag":"-","m2":"0","m2_flag":"-","m3_flag":"-","m4_flag":"-","location1":"MARYLAND","sort_order":"20225100173","geocode":{"type":"Point","coordinates":[-76.49015,38.97678]}}
        ,{"states":"NORTH CAROLINA","year":"2022","week":"51","label":"Arboviral diseases, Eastern equine encephalitis virus disease","m1_flag":"-","m2":"0","m2_flag":"-","m3_flag":"-","m4":"1","m4_flag":"-","location1":"NORTH CAROLINA","sort_order":"20225100174","geocode":{"type":"Point","coordinates":[-78.6427,35.78547]}}
        ,{"states":"SOUTH CAROLINA","year":"2022","week":"51","label":"Arboviral diseases, Eastern equine encephalitis virus disease","m1_flag":"-","m2":"0","m2_flag":"-","m3_flag":"-","m4_flag":"-","location1":"SOUTH CAROLINA","sort_order":"20225100175","geocode":{"type":"Point","coordinates":[-81.04537,33.99882]}}
        ,{"states":"VIRGINIA","year":"2022","week":"51","label":"Arboviral diseases, Eastern equine encephalitis virus disease","m1_flag":"-","m2":"0","m2_flag":"-","m3_flag":"-","m4_flag":"-","location1":"VIRGINIA","sort_order":"20225100176","geocode":{"type":"Point","coordinates":[-77.43367,37.54068]}}
        ,{"states":"WEST VIRGINIA","year":"2022","week":"51","label":"Arboviral diseases, Eastern equine encephalitis virus disease","m1_flag":"-","m2":"0","m2_flag":"-","m3_flag":"-","m4_flag":"-","location1":"WEST VIRGINIA","sort_order":"20225100177","geocode":{"type":"Point","coordinates":[-81.63896,38.35016]}}
        ,{"states":"EAST SOUTH CENTRAL","year":"2022","week":"51","label":"Arboviral diseases, Eastern equine encephalitis virus disease","m1_flag":"-","m2":"0","m2_flag":"-","m3_flag":"-","m4_flag":"-","location2":"EAST SOUTH CENTRAL","sort_order":"20225100178"}
        ,{"states":"ALABAMA","year":"2022","week":"51","label":"Arboviral diseases, Eastern equine encephalitis virus disease","m1_flag":"-","m2":"0","m2_flag":"-","m3_flag":"-","m4_flag":"-","location1":"ALABAMA","sort_order":"20225100179","geocode":{"type":"Point","coordinates":[-86.30006,32.38015]}}
        ,{"states":"KENTUCKY","year":"2022","week":"51","label":"Arboviral diseases, Eastern equine encephalitis virus disease","m1_flag":"-","m2":"0","m2_flag":"-","m3_flag":"-","m4_flag":"-","location1":"KENTUCKY","sort_order":"20225100180","geocode":{"type":"Point","coordinates":[-84.8787,38.19507]}}
        ,{"states":"MISSISSIPPI","year":"2022","week":"51","label":"Arboviral diseases, Eastern equine encephalitis virus disease","m1_flag":"-","m2":"0","m2_flag":"-","m3_flag":"-","m4_flag":"-","location1":"MISSISSIPPI","sort_order":"20225100181","geocode":{"type":"Point","coordinates":[-90.18045,32.29896]}}
        ,{"states":"TENNESSEE","year":"2022","week":"51","label":"Arboviral diseases, Eastern equine encephalitis virus disease","m1_flag":"-","m2":"0","m2_flag":"-","m3_flag":"-","m4_flag":"-","location1":"TENNESSEE","sort_order":"20225100182","geocode":{"type":"Point","coordinates":[-86.77817,36.16784]}}
        ,{"states":"WEST SOUTH CENTRAL","year":"2022","week":"51","label":"Arboviral diseases, Eastern equine encephalitis virus disease","m1_flag":"-","m2":"0","m2_flag":"-","m3_flag":"-","m4_flag":"-","location2":"WEST SOUTH CENTRAL","sort_order":"20225100183"}
        ,{"states":"ARKANSAS","year":"2022","week":"51","label":"Arboviral diseases, Eastern equine encephalitis virus disease","m1_flag":"-","m2":"0","m2_flag":"-","m3_flag":"-","m4_flag":"-","location1":"ARKANSAS","sort_order":"20225100184","geocode":{"type":"Point","coordinates":[-92.27486,34.7487]}}
        ,{"states":"LOUISIANA","year":"2022","week":"51","label":"Arboviral diseases, Eastern equine encephalitis virus disease","m1_flag":"-","m2":"0","m2_flag":"-","m3_flag":"-","m4_flag":"-","location1":"LOUISIANA","sort_order":"20225100185","geocode":{"type":"Point","coordinates":[-91.18665,30.44335]}}
        ,{"states":"OKLAHOMA","year":"2022","week":"51","label":"Arboviral diseases, Eastern equine encephalitis virus disease","m1_flag":"-","m2":"0","m2_flag":"-","m3_flag":"-","m4_flag":"-","location1":"OKLAHOMA","sort_order":"20225100186","geocode":{"type":"Point","coordinates":[-97.52107,35.47203]}}
        ,{"states":"TEXAS","year":"2022","week":"51","label":"Arboviral diseases, Eastern equine encephalitis virus disease","m1_flag":"-","m2":"0","m2_flag":"-","m3_flag":"-","m4_flag":"-","location1":"TEXAS","sort_order":"20225100187","geocode":{"type":"Point","coordinates":[-97.743,30.26759]}}
        ,{"states":"MOUNTAIN","year":"2022","week":"51","label":"Arboviral diseases, Eastern equine encephalitis virus disease","m1_flag":"-","m2":"0","m2_flag":"-","m3_flag":"-","m4_flag":"-","location2":"MOUNTAIN","sort_order":"20225100188"}
        ,{"states":"ARIZONA","year":"2022","week":"51","label":"Arboviral diseases, Eastern equine encephalitis virus disease","m1_flag":"-","m2":"0","m2_flag":"-","m3_flag":"-","m4_flag":"-","location1":"ARIZONA","sort_order":"20225100189","geocode":{"type":"Point","coordinates":[-112.07581,33.44825]}}
        ,{"states":"COLORADO","year":"2022","week":"51","label":"Arboviral diseases, Eastern equine encephalitis virus disease","m1_flag":"-","m2":"0","m2_flag":"-","m3_flag":"-","m4_flag":"-","location1":"COLORADO","sort_order":"20225100190","geocode":{"type":"Point","coordinates":[-104.99203,39.74001]}}
        ,{"states":"IDAHO","year":"2022","week":"51","label":"Arboviral diseases, Eastern equine encephalitis virus disease","m1_flag":"-","m2":"0","m2_flag":"-","m3_flag":"-","m4_flag":"-","location1":"IDAHO","sort_order":"20225100191","geocode":{"type":"Point","coordinates":[-116.19341,43.60764]}}
        ,{"states":"MONTANA","year":"2022","week":"51","label":"Arboviral diseases, Eastern equine encephalitis virus disease","m1_flag":"-","m2":"0","m2_flag":"-","m3_flag":"-","m4_flag":"-","location1":"MONTANA","sort_order":"20225100192","geocode":{"type":"Point","coordinates":[-112.02066,46.58976]}}
        ,{"states":"NEVADA","year":"2022","week":"51","label":"Arboviral diseases, Eastern equine encephalitis virus disease","m1_flag":"-","m2":"0","m2_flag":"-","m3_flag":"-","m4_flag":"-","location1":"NEVADA","sort_order":"20225100193","geocode":{"type":"Point","coordinates":[-119.76698,39.16505]}}
        ,{"states":"NEW MEXICO","year":"2022","week":"51","label":"Arboviral diseases, Eastern equine encephalitis virus disease","m1_flag":"-","m2":"0","m2_flag":"-","m3_flag":"-","m4_flag":"-","location1":"NEW MEXICO","sort_order":"20225100194","geocode":{"type":"Point","coordinates":[-105.93825,35.69177]}}
        ,{"states":"UTAH","year":"2022","week":"51","label":"Arboviral diseases, Eastern equine encephalitis virus disease","m1_flag":"-","m2":"0","m2_flag":"-","m3_flag":"-","m4_flag":"-","location1":"UTAH","sort_order":"20225100195","geocode":{"type":"Point","coordinates":[-111.88822,40.76031]}}
        ,{"states":"WYOMING","year":"2022","week":"51","label":"Arboviral diseases, Eastern equine encephalitis virus disease","m1_flag":"-","m2":"0","m2_flag":"-","m3_flag":"-","m4_flag":"-","location1":"WYOMING","sort_order":"20225100196","geocode":{"type":"Point","coordinates":[-104.82155,41.13481]}}
        ,{"states":"PACIFIC","year":"2022","week":"51","label":"Arboviral diseases, Eastern equine encephalitis virus disease","m1_flag":"-","m2":"0","m2_flag":"-","m3_flag":"-","m4_flag":"-","location2":"PACIFIC","sort_order":"20225100197"}
        ,{"states":"ALASKA","year":"2022","week":"51","label":"Arboviral diseases, Eastern equine encephalitis virus disease","m1_flag":"-","m2":"0","m2_flag":"-","m3_flag":"-","m4_flag":"-","location1":"ALASKA","sort_order":"20225100198","geocode":{"type":"Point","coordinates":[-134.40679,58.29973]}}
        ,{"states":"CALIFORNIA","year":"2022","week":"51","label":"Arboviral diseases, Eastern equine encephalitis virus disease","m1_flag":"-","m2":"0","m2_flag":"-","m3_flag":"-","m4_flag":"-","location1":"CALIFORNIA","sort_order":"20225100199","geocode":{"type":"Point","coordinates":[-121.49086,38.57944]}}
        ,{"states":"HAWAII","year":"2022","week":"51","label":"Arboviral diseases, Eastern equine encephalitis virus disease","m1_flag":"-","m2":"0","m2_flag":"-","m3_flag":"-","m4_flag":"-","location1":"HAWAII","sort_order":"20225100200","geocode":{"type":"Point","coordinates":[-157.85788,21.30493]}}
        ,{"states":"OREGON","year":"2022","week":"51","label":"Arboviral diseases, Eastern equine encephalitis virus disease","m1_flag":"-","m2":"0","m2_flag":"-","m3_flag":"-","m4_flag":"-","location1":"OREGON","sort_order":"20225100201","geocode":{"type":"Point","coordinates":[-123.04382,44.93326]}}
        ,{"states":"WASHINGTON","year":"2022","week":"51","label":"Arboviral diseases, Eastern equine encephalitis virus disease","m1_flag":"-","m2":"0","m2_flag":"-","m3_flag":"-","m4_flag":"-","location1":"WASHINGTON","sort_order":"20225100202","geocode":{"type":"Point","coordinates":[-122.89167,47.03956]}}
        ,{"states":"US TERRITORIES","year":"2022","week":"51","label":"Arboviral diseases, Eastern equine encephalitis virus disease","m1_flag":"-","m2":"0","m2_flag":"-","m3_flag":"-","m4_flag":"-","location2":"US TERRITORIES","sort_order":"20225100203"}
        ,{"states":"AMERICAN SAMOA","year":"2022","week":"51","label":"Arboviral diseases, Eastern equine encephalitis virus disease","m1_flag":"-","m2":"0","m2_flag":"-","m3_flag":"-","m4_flag":"-","location1":"AMERICAN SAMOA","sort_order":"20225100204"}
        ,{"states":"NORTHERN MARIANA ISLANDS","year":"2022","week":"51","label":"Arboviral diseases, Eastern equine encephalitis virus disease","m1_flag":"-","m2":"0","m2_flag":"-","m3_flag":"-","m4_flag":"-","location1":"NORTHERN MARIANA ISLANDS","sort_order":"20225100205"}
        ,{"states":"GUAM","year":"2022","week":"51","label":"Arboviral diseases, Eastern equine encephalitis virus disease","m1_flag":"-","m2":"0","m2_flag":"-","m3_flag":"-","m4_flag":"-","location1":"GUAM","sort_order":"20225100206"}
        ,{"states":"PUERTO RICO","year":"2022","week":"51","label":"Arboviral diseases, Eastern equine encephalitis virus disease","m1_flag":"-","m2":"0","m2_flag":"-","m3_flag":"-","m4_flag":"-","location1":"PUERTO RICO","sort_order":"20225100207","geocode":{"type":"Point","coordinates":[-66.10474,18.46633]}}
        ,{"states":"U.S. VIRGIN ISLANDS","year":"2022","week":"51","label":"Arboviral diseases, Eastern equine encephalitis virus disease","m1_flag":"-","m2":"0","m2_flag":"-","m3_flag":"-","m4_flag":"-","location1":"U.S. VIRGIN ISLANDS","sort_order":"20225100208"}
        ,{"states":"NON-US RESIDENTS","year":"2022","week":"51","label":"Arboviral diseases, Eastern equine encephalitis virus disease","m1_flag":"-","m2":"0","m2_flag":"-","m3_flag":"-","m4_flag":"-","location2":"NON-US RESIDENTS","sort_order":"20225100209"}
        ,{"states":"TOTAL","year":"2022","week":"51","label":"Arboviral diseases, Eastern equine encephalitis virus disease","m1_flag":"-","m2":"1","m2_flag":"-","m3":"1","m3_flag":"-","m4":"5","m4_flag":"-","location2":"TOTAL","sort_order":"20225100210"}
        ,{"states":"US RESIDENTS","year":"2022","week":"51","label":"Arboviral diseases, Jamestown Canyon  virus disease","m1_flag":"-","m2":"1","m2_flag":"-","m3":"8","m3_flag":"-","m4":"32","m4_flag":"-","location2":"US RESIDENTS","sort_order":"20225100211"}
        ,{"states":"NEW ENGLAND","year":"2022","week":"51","label":"Arboviral diseases, Jamestown Canyon  virus disease","m1_flag":"-","m2":"1","m2_flag":"-","m3":"3","m3_flag":"-","m4":"7","m4_flag":"-","location2":"NEW ENGLAND","sort_order":"20225100212"}
        ,{"states":"CONNECTICUT","year":"2022","week":"51","label":"Arboviral diseases, Jamestown Canyon  virus disease","m1_flag":"-","m2":"0","m2_flag":"-","m3_flag":"-","m4_flag":"-","location1":"CONNECTICUT","sort_order":"20225100213","geocode":{"type":"Point","coordinates":[-72.67399,41.76376]}}
        ,{"states":"MAINE","year":"2022","week":"51","label":"Arboviral diseases, Jamestown Canyon  virus disease","m1_flag":"-","m2":"1","m2_flag":"-","m3_flag":"-","m4":"1","m4_flag":"-","location1":"MAINE","sort_order":"20225100214","geocode":{"type":"Point","coordinates":[-69.77631,44.31804]}}
        ,{"states":"MASSACHUSETTS","year":"2022","week":"51","label":"Arboviral diseases, Jamestown Canyon  virus disease","m1_flag":"-","m2":"1","m2_flag":"-","m3":"1","m3_flag":"-","m4_flag":"-","location1":"MASSACHUSETTS","sort_order":"20225100215","geocode":{"type":"Point","coordinates":[-71.05675,42.35866]}}
        ,{"states":"NEW HAMPSHIRE","year":"2022","week":"51","label":"Arboviral diseases, Jamestown Canyon  virus disease","m1_flag":"-","m2":"0","m2_flag":"-","m3_flag":"-","m4":"5","m4_flag":"-","location1":"NEW HAMPSHIRE","sort_order":"20225100216","geocode":{"type":"Point","coordinates":[-71.53661,43.20725]}}
        ,{"states":"RHODE ISLAND","year":"2022","week":"51","label":"Arboviral diseases, Jamestown Canyon  virus disease","m1_flag":"-","m2":"1","m2_flag":"-","m3":"2","m3_flag":"-","m4":"1","m4_flag":"-","location1":"RHODE ISLAND","sort_order":"20225100217","geocode":{"type":"Point","coordinates":[-71.41198,41.82388]}}
        ,{"states":"VERMONT","year":"2022","week":"51","label":"Arboviral diseases, Jamestown Canyon  virus disease","m1_flag":"-","m2":"0","m2_flag":"-","m3_flag":"-","m4_flag":"-","location1":"VERMONT","sort_order":"20225100218","geocode":{"type":"Point","coordinates":[-72.57627,44.26029]}}
        ,{"states":"MIDDLE ATLANTIC","year":"2022","week":"51","label":"Arboviral diseases, Jamestown Canyon  virus disease","m1_flag":"-","m2":"0","m2_flag":"-","m3_flag":"-","m4":"2","m4_flag":"-","location2":"MIDDLE ATLANTIC","sort_order":"20225100219"}
        ,{"states":"NEW JERSEY","year":"2022","week":"51","label":"Arboviral diseases, Jamestown Canyon  virus disease","m1_flag":"-","m2":"0","m2_flag":"-","m3_flag":"-","m4":"2","m4_flag":"-","location1":"NEW JERSEY","sort_order":"20225100220","geocode":{"type":"Point","coordinates":[-74.75942,40.21789]}}
        ,{"states":"NEW YORK","year":"2022","week":"51","label":"Arboviral diseases, Jamestown Canyon  virus disease","m1_flag":"-","m2":"0","m2_flag":"-","m3_flag":"-","m4_flag":"-","location1":"NEW YORK","sort_order":"20225100221","geocode":{"type":"Point","coordinates":[-73.75522,42.65155]}}
        ,{"states":"NEW YORK CITY","year":"2022","week":"51","label":"Arboviral diseases, Jamestown Canyon  virus disease","m1_flag":"-","m2":"0","m2_flag":"-","m3_flag":"-","m4_flag":"-","location1":"NEW YORK CITY","sort_order":"20225100222","geocode":{"type":"Point","coordinates":[-73.75522,42.65155]}}
        ,{"states":"PENNSYLVANIA","year":"2022","week":"51","label":"Arboviral diseases, Jamestown Canyon  virus disease","m1_flag":"-","m2":"0","m2_flag":"-","m3_flag":"-","m4_flag":"-","location1":"PENNSYLVANIA","sort_order":"20225100223","geocode":{"type":"Point","coordinates":[-76.88224,40.25986]}}
        ,{"states":"EAST NORTH CENTRAL","year":"2022","week":"51","label":"Arboviral diseases, Jamestown Canyon  virus disease","m1_flag":"-","m2":"1","m2_flag":"-","m3":"4","m3_flag":"-","m4":"17","m4_flag":"-","location2":"EAST NORTH CENTRAL","sort_order":"20225100224"}
        ,{"states":"ILLINOIS","year":"2022","week":"51","label":"Arboviral diseases, Jamestown Canyon  virus disease","m1_flag":"-","m2":"0","m2_flag":"-","m3_flag":"-","m4_flag":"-","location1":"ILLINOIS","sort_order":"20225100225","geocode":{"type":"Point","coordinates":[-89.64361,39.8013]}}
        ,{"states":"INDIANA","year":"2022","week":"51","label":"Arboviral diseases, Jamestown Canyon  virus disease","m1_flag":"-","m2":"0","m2_flag":"-","m3_flag":"-","m4":"1","m4_flag":"-","location1":"INDIANA","sort_order":"20225100226","geocode":{"type":"Point","coordinates":[-86.15013,39.76691]}}
        ,{"states":"MICHIGAN","year":"2022","week":"51","label":"Arboviral diseases, Jamestown Canyon  virus disease","m1_flag":"-","m2":"0","m2_flag":"-","m3_flag":"-","m4":"6","m4_flag":"-","location1":"MICHIGAN","sort_order":"20225100227","geocode":{"type":"Point","coordinates":[-84.55226,42.73194]}}
        ,{"states":"OHIO","year":"2022","week":"51","label":"Arboviral diseases, Jamestown Canyon  virus disease","m1_flag":"-","m2":"0","m2_flag":"-","m3_flag":"-","m4_flag":"-","location1":"OHIO","sort_order":"20225100228","geocode":{"type":"Point","coordinates":[-83.00276,39.96199]}}
        ,{"states":"WISCONSIN","year":"2022","week":"51","label":"Arboviral diseases, Jamestown Canyon  virus disease","m1_flag":"-","m2":"1","m2_flag":"-","m3":"4","m3_flag":"-","m4":"10","m4_flag":"-","location1":"WISCONSIN","sort_order":"20225100229","geocode":{"type":"Point","coordinates":[-89.38645,43.07313]}}
        ,{"states":"WEST NORTH CENTRAL","year":"2022","week":"51","label":"Arboviral diseases, Jamestown Canyon  virus disease","m1_flag":"-","m2":"1","m2_flag":"-","m3":"1","m3_flag":"-","m4":"6","m4_flag":"-","location2":"WEST NORTH CENTRAL","sort_order":"20225100230"}
        ,{"states":"IOWA","year":"2022","week":"51","label":"Arboviral diseases, Jamestown Canyon  virus disease","m1_flag":"-","m2":"0","m2_flag":"-","m3_flag":"-","m4_flag":"-","location1":"IOWA","sort_order":"20225100231","geocode":{"type":"Point","coordinates":[-93.61539,41.58981]}}
        ,{"states":"KANSAS","year":"2022","week":"51","label":"Arboviral diseases, Jamestown Canyon  virus disease","m1_flag":"-","m2":"0","m2_flag":"-","m3_flag":"-","m4_flag":"-","location1":"KANSAS","sort_order":"20225100232","geocode":{"type":"Point","coordinates":[-95.67119,39.04928]}}
        ,{"states":"MINNESOTA","year":"2022","week":"51","label":"Arboviral diseases, Jamestown Canyon  virus disease","m1_flag":"-","m2":"1","m2_flag":"-","m3":"1","m3_flag":"-","m4":"6","m4_flag":"-","location1":"MINNESOTA","sort_order":"20225100233","geocode":{"type":"Point","coordinates":[-93.09649,44.94339]}}
        ,{"states":"MISSOURI","year":"2022","week":"51","label":"Arboviral diseases, Jamestown Canyon  virus disease","m1_flag":"-","m2":"0","m2_flag":"-","m3_flag":"-","m4_flag":"-","location1":"MISSOURI","sort_order":"20225100234","geocode":{"type":"Point","coordinates":[-92.17785,38.57751]}}
        ,{"states":"NEBRASKA","year":"2022","week":"51","label":"Arboviral diseases, Jamestown Canyon  virus disease","m1_flag":"-","m2":"0","m2_flag":"-","m3_flag":"-","m4_flag":"-","location1":"NEBRASKA","sort_order":"20225100235","geocode":{"type":"Point","coordinates":[-96.70731,40.81362]}}
        ,{"states":"NORTH DAKOTA","year":"2022","week":"51","label":"Arboviral diseases, Jamestown Canyon  virus disease","m1_flag":"-","m2":"0","m2_flag":"-","m3_flag":"-","m4_flag":"-","location1":"NORTH DAKOTA","sort_order":"20225100236","geocode":{"type":"Point","coordinates":[-100.77969,46.80536]}}
        ,{"states":"SOUTH DAKOTA","year":"2022","week":"51","label":"Arboviral diseases, Jamestown Canyon  virus disease","m1_flag":"-","m2":"0","m2_flag":"-","m3_flag":"-","m4_flag":"-","location1":"SOUTH DAKOTA","sort_order":"20225100237","geocode":{"type":"Point","coordinates":[-100.34987,44.36917]}}
        ,{"states":"SOUTH ATLANTIC","year":"2022","week":"51","label":"Arboviral diseases, Jamestown Canyon  virus disease","m1_flag":"-","m2":"0","m2_flag":"-","m3_flag":"-","m4_flag":"-","location2":"SOUTH ATLANTIC","sort_order":"20225100238"}
        ,{"states":"DELAWARE","year":"2022","week":"51","label":"Arboviral diseases, Jamestown Canyon  virus disease","m1_flag":"-","m2":"0","m2_flag":"-","m3_flag":"-","m4_flag":"-","location1":"DELAWARE","sort_order":"20225100239","geocode":{"type":"Point","coordinates":[-75.52474,39.15803]}}
        ,{"states":"DISTRICT OF COLUMBIA","year":"2022","week":"51","label":"Arboviral diseases, Jamestown Canyon  virus disease","m1_flag":"-","m2":"0","m2_flag":"-","m3_flag":"-","m4_flag":"-","location1":"DISTRICT OF COLUMBIA","sort_order":"20225100240"}
        ,{"states":"FLORIDA","year":"2022","week":"51","label":"Arboviral diseases, Jamestown Canyon  virus disease","m1_flag":"-","m2":"0","m2_flag":"-","m3_flag":"-","m4_flag":"-","location1":"FLORIDA","sort_order":"20225100241","geocode":{"type":"Point","coordinates":[-84.28065,30.43977]}}
        ,{"states":"GEORGIA","year":"2022","week":"51","label":"Arboviral diseases, Jamestown Canyon  virus disease","m1_flag":"-","m2":"0","m2_flag":"-","m3_flag":"-","m4_flag":"-","location1":"GEORGIA","sort_order":"20225100242","geocode":{"type":"Point","coordinates":[-84.39111,33.74831]}}
        ,{"states":"MARYLAND","year":"2022","week":"51","label":"Arboviral diseases, Jamestown Canyon  virus disease","m1_flag":"-","m2":"0","m2_flag":"-","m3_flag":"-","m4_flag":"-","location1":"MARYLAND","sort_order":"20225100243","geocode":{"type":"Point","coordinates":[-76.49015,38.97678]}}
        ,{"states":"NORTH CAROLINA","year":"2022","week":"51","label":"Arboviral diseases, Jamestown Canyon  virus disease","m1_flag":"-","m2":"0","m2_flag":"-","m3_flag":"-","m4_flag":"-","location1":"NORTH CAROLINA","sort_order":"20225100244","geocode":{"type":"Point","coordinates":[-78.6427,35.78547]}}
        ,{"states":"SOUTH CAROLINA","year":"2022","week":"51","label":"Arboviral diseases, Jamestown Canyon  virus disease","m1_flag":"-","m2":"0","m2_flag":"-","m3_flag":"-","m4_flag":"-","location1":"SOUTH CAROLINA","sort_order":"20225100245","geocode":{"type":"Point","coordinates":[-81.04537,33.99882]}}
        ,{"states":"VIRGINIA","year":"2022","week":"51","label":"Arboviral diseases, Jamestown Canyon  virus disease","m1_flag":"-","m2":"0","m2_flag":"-","m3_flag":"-","m4_flag":"-","location1":"VIRGINIA","sort_order":"20225100246","geocode":{"type":"Point","coordinates":[-77.43367,37.54068]}}
        ,{"states":"WEST VIRGINIA","year":"2022","week":"51","label":"Arboviral diseases, Jamestown Canyon  virus disease","m1_flag":"-","m2":"0","m2_flag":"-","m3_flag":"-","m4_flag":"-","location1":"WEST VIRGINIA","sort_order":"20225100247","geocode":{"type":"Point","coordinates":[-81.63896,38.35016]}}
        ,{"states":"EAST SOUTH CENTRAL","year":"2022","week":"51","label":"Arboviral diseases, Jamestown Canyon  virus disease","m1_flag":"-","m2":"0","m2_flag":"-","m3_flag":"-","m4_flag":"-","location2":"EAST SOUTH CENTRAL","sort_order":"20225100248"}
        ,{"states":"ALABAMA","year":"2022","week":"51","label":"Arboviral diseases, Jamestown Canyon  virus disease","m1_flag":"-","m2":"0","m2_flag":"-","m3_flag":"-","m4_flag":"-","location1":"ALABAMA","sort_order":"20225100249","geocode":{"type":"Point","coordinates":[-86.30006,32.38015]}}
        ,{"states":"KENTUCKY","year":"2022","week":"51","label":"Arboviral diseases, Jamestown Canyon  virus disease","m1_flag":"-","m2":"0","m2_flag":"-","m3_flag":"-","m4_flag":"-","location1":"KENTUCKY","sort_order":"20225100250","geocode":{"type":"Point","coordinates":[-84.8787,38.19507]}}
        ,{"states":"MISSISSIPPI","year":"2022","week":"51","label":"Arboviral diseases, Jamestown Canyon  virus disease","m1_flag":"-","m2":"0","m2_flag":"-","m3_flag":"-","m4_flag":"-","location1":"MISSISSIPPI","sort_order":"20225100251","geocode":{"type":"Point","coordinates":[-90.18045,32.29896]}}
        ,{"states":"TENNESSEE","year":"2022","week":"51","label":"Arboviral diseases, Jamestown Canyon  virus disease","m1_flag":"-","m2":"0","m2_flag":"-","m3_flag":"-","m4_flag":"-","location1":"TENNESSEE","sort_order":"20225100252","geocode":{"type":"Point","coordinates":[-86.77817,36.16784]}}
        ,{"states":"WEST SOUTH CENTRAL","year":"2022","week":"51","label":"Arboviral diseases, Jamestown Canyon  virus disease","m1_flag":"-","m2":"0","m2_flag":"-","m3_flag":"-","m4_flag":"-","location2":"WEST SOUTH CENTRAL","sort_order":"20225100253"}
        ,{"states":"ARKANSAS","year":"2022","week":"51","label":"Arboviral diseases, Jamestown Canyon  virus disease","m1_flag":"-","m2":"0","m2_flag":"-","m3_flag":"-","m4_flag":"-","location1":"ARKANSAS","sort_order":"20225100254","geocode":{"type":"Point","coordinates":[-92.27486,34.7487]}}
        ,{"states":"LOUISIANA","year":"2022","week":"51","label":"Arboviral diseases, Jamestown Canyon  virus disease","m1_flag":"-","m2":"0","m2_flag":"-","m3_flag":"-","m4_flag":"-","location1":"LOUISIANA","sort_order":"20225100255","geocode":{"type":"Point","coordinates":[-91.18665,30.44335]}}
        ,{"states":"OKLAHOMA","year":"2022","week":"51","label":"Arboviral diseases, Jamestown Canyon  virus disease","m1_flag":"-","m2":"0","m2_flag":"-","m3_flag":"-","m4_flag":"-","location1":"OKLAHOMA","sort_order":"20225100256","geocode":{"type":"Point","coordinates":[-97.52107,35.47203]}}
        ,{"states":"TEXAS","year":"2022","week":"51","label":"Arboviral diseases, Jamestown Canyon  virus disease","m1_flag":"-","m2":"0","m2_flag":"-","m3_flag":"-","m4_flag":"-","location1":"TEXAS","sort_order":"20225100257","geocode":{"type":"Point","coordinates":[-97.743,30.26759]}}
        ,{"states":"MOUNTAIN","year":"2022","week":"51","label":"Arboviral diseases, Jamestown Canyon  virus disease","m1_flag":"-","m2":"0","m2_flag":"-","m3_flag":"-","m4_flag":"-","location2":"MOUNTAIN","sort_order":"20225100258"}
        ,{"states":"ARIZONA","year":"2022","week":"51","label":"Arboviral diseases, Jamestown Canyon  virus disease","m1_flag":"-","m2":"0","m2_flag":"-","m3_flag":"-","m4_flag":"-","location1":"ARIZONA","sort_order":"20225100259","geocode":{"type":"Point","coordinates":[-112.07581,33.44825]}}
        ,{"states":"COLORADO","year":"2022","week":"51","label":"Arboviral diseases, Jamestown Canyon  virus disease","m1_flag":"-","m2":"0","m2_flag":"-","m3_flag":"-","m4_flag":"-","location1":"COLORADO","sort_order":"20225100260","geocode":{"type":"Point","coordinates":[-104.99203,39.74001]}}
        ,{"states":"IDAHO","year":"2022","week":"51","label":"Arboviral diseases, Jamestown Canyon  virus disease","m1_flag":"-","m2":"0","m2_flag":"-","m3_flag":"-","m4_flag":"-","location1":"IDAHO","sort_order":"20225100261","geocode":{"type":"Point","coordinates":[-116.19341,43.60764]}}
        ,{"states":"MONTANA","year":"2022","week":"51","label":"Arboviral diseases, Jamestown Canyon  virus disease","m1_flag":"-","m2":"0","m2_flag":"-","m3_flag":"-","m4_flag":"-","location1":"MONTANA","sort_order":"20225100262","geocode":{"type":"Point","coordinates":[-112.02066,46.58976]}}
        ,{"states":"NEVADA","year":"2022","week":"51","label":"Arboviral diseases, Jamestown Canyon  virus disease","m1_flag":"-","m2":"0","m2_flag":"-","m3_flag":"-","m4_flag":"-","location1":"NEVADA","sort_order":"20225100263","geocode":{"type":"Point","coordinates":[-119.76698,39.16505]}}
        ,{"states":"NEW MEXICO","year":"2022","week":"51","label":"Arboviral diseases, Jamestown Canyon  virus disease","m1_flag":"-","m2":"0","m2_flag":"-","m3_flag":"-","m4_flag":"-","location1":"NEW MEXICO","sort_order":"20225100264","geocode":{"type":"Point","coordinates":[-105.93825,35.69177]}}
        ,{"states":"UTAH","year":"2022","week":"51","label":"Arboviral diseases, Jamestown Canyon  virus disease","m1_flag":"-","m2":"0","m2_flag":"-","m3_flag":"-","m4_flag":"-","location1":"UTAH","sort_order":"20225100265","geocode":{"type":"Point","coordinates":[-111.88822,40.76031]}}
        ,{"states":"WYOMING","year":"2022","week":"51","label":"Arboviral diseases, Jamestown Canyon  virus disease","m1_flag":"-","m2":"0","m2_flag":"-","m3_flag":"-","m4_flag":"-","location1":"WYOMING","sort_order":"20225100266","geocode":{"type":"Point","coordinates":[-104.82155,41.13481]}}
        ,{"states":"PACIFIC","year":"2022","week":"51","label":"Arboviral diseases, Jamestown Canyon  virus disease","m1_flag":"-","m2":"0","m2_flag":"-","m3_flag":"-","m4_flag":"-","location2":"PACIFIC","sort_order":"20225100267"}
        ,{"states":"ALASKA","year":"2022","week":"51","label":"Arboviral diseases, Jamestown Canyon  virus disease","m1_flag":"-","m2":"0","m2_flag":"-","m3_flag":"-","m4_flag":"-","location1":"ALASKA","sort_order":"20225100268","geocode":{"type":"Point","coordinates":[-134.40679,58.29973]}}
        ,{"states":"CALIFORNIA","year":"2022","week":"51","label":"Arboviral diseases, Jamestown Canyon  virus disease","m1_flag":"-","m2":"0","m2_flag":"-","m3_flag":"-","m4_flag":"-","location1":"CALIFORNIA","sort_order":"20225100269","geocode":{"type":"Point","coordinates":[-121.49086,38.57944]}}
        ,{"states":"HAWAII","year":"2022","week":"51","label":"Arboviral diseases, Jamestown Canyon  virus disease","m1_flag":"-","m2":"0","m2_flag":"-","m3_flag":"-","m4_flag":"-","location1":"HAWAII","sort_order":"20225100270","geocode":{"type":"Point","coordinates":[-157.85788,21.30493]}}
        ,{"states":"OREGON","year":"2022","week":"51","label":"Arboviral diseases, Jamestown Canyon  virus disease","m1_flag":"-","m2":"0","m2_flag":"-","m3_flag":"-","m4_flag":"-","location1":"OREGON","sort_order":"20225100271","geocode":{"type":"Point","coordinates":[-123.04382,44.93326]}}
        ,{"states":"WASHINGTON","year":"2022","week":"51","label":"Arboviral diseases, Jamestown Canyon  virus disease","m1_flag":"-","m2":"0","m2_flag":"-","m3_flag":"-","m4_flag":"-","location1":"WASHINGTON","sort_order":"20225100272","geocode":{"type":"Point","coordinates":[-122.89167,47.03956]}}
        ,{"states":"US TERRITORIES","year":"2022","week":"51","label":"Arboviral diseases, Jamestown Canyon  virus disease","m1_flag":"-","m2":"0","m2_flag":"-","m3_flag":"-","m4_flag":"-","location2":"US TERRITORIES","sort_order":"20225100273"}
        ,{"states":"AMERICAN SAMOA","year":"2022","week":"51","label":"Arboviral diseases, Jamestown Canyon  virus disease","m1_flag":"-","m2":"0","m2_flag":"-","m3_flag":"-","m4_flag":"-","location1":"AMERICAN SAMOA","sort_order":"20225100274"}
        ,{"states":"NORTHERN MARIANA ISLANDS","year":"2022","week":"51","label":"Arboviral diseases, Jamestown Canyon  virus disease","m1_flag":"-","m2":"0","m2_flag":"-","m3_flag":"-","m4_flag":"-","location1":"NORTHERN MARIANA ISLANDS","sort_order":"20225100275"}
        ,{"states":"GUAM","year":"2022","week":"51","label":"Arboviral diseases, Jamestown Canyon  virus disease","m1_flag":"-","m2":"0","m2_flag":"-","m3_flag":"-","m4_flag":"-","location1":"GUAM","sort_order":"20225100276"}
        ,{"states":"PUERTO RICO","year":"2022","week":"51","label":"Arboviral diseases, Jamestown Canyon  virus disease","m1_flag":"-","m2":"0","m2_flag":"-","m3_flag":"-","m4_flag":"-","location1":"PUERTO RICO","sort_order":"20225100277","geocode":{"type":"Point","coordinates":[-66.10474,18.46633]}}
        ,{"states":"U.S. VIRGIN ISLANDS","year":"2022","week":"51","label":"Arboviral diseases, Jamestown Canyon  virus disease","m1_flag":"-","m2":"0","m2_flag":"-","m3_flag":"-","m4_flag":"-","location1":"U.S. VIRGIN ISLANDS","sort_order":"20225100278"}
        ,{"states":"NON-US RESIDENTS","year":"2022","week":"51","label":"Arboviral diseases, Jamestown Canyon  virus disease","m1_flag":"-","m2":"0","m2_flag":"-","m3_flag":"-","m4_flag":"-","location2":"NON-US RESIDENTS","sort_order":"20225100279"}
        ,{"states":"TOTAL","year":"2022","week":"51","label":"Arboviral diseases, Jamestown Canyon  virus disease","m1_flag":"-","m2":"1","m2_flag":"-","m3":"8","m3_flag":"-","m4":"32","m4_flag":"-","location2":"TOTAL","sort_order":"20225100280"}
        ,{"states":"US RESIDENTS","year":"2022","week":"51","label":"Arboviral diseases, La Crosse  virus disease","m1_flag":"-","m2":"4","m2_flag":"-","m3":"21","m3_flag":"-","m4":"40","m4_flag":"-","location2":"US RESIDENTS","sort_order":"20225100281"}
        ,{"states":"NEW ENGLAND","year":"2022","week":"51","label":"Arboviral diseases, La Crosse  virus disease","m1_flag":"-","m2":"0","m2_flag":"-","m3_flag":"-","m4_flag":"-","location2":"NEW ENGLAND","sort_order":"20225100282"}
        ,{"states":"CONNECTICUT","year":"2022","week":"51","label":"Arboviral diseases, La Crosse  virus disease","m1_flag":"-","m2":"0","m2_flag":"-","m3_flag":"-","m4_flag":"-","location1":"CONNECTICUT","sort_order":"20225100283","geocode":{"type":"Point","coordinates":[-72.67399,41.76376]}}
        ,{"states":"MAINE","year":"2022","week":"51","label":"Arboviral diseases, La Crosse  virus disease","m1_flag":"-","m2":"0","m2_flag":"-","m3_flag":"-","m4_flag":"-","location1":"MAINE","sort_order":"20225100284","geocode":{"type":"Point","coordinates":[-69.77631,44.31804]}}
        ,{"states":"MASSACHUSETTS","year":"2022","week":"51","label":"Arboviral diseases, La Crosse  virus disease","m1_flag":"-","m2":"0","m2_flag":"-","m3_flag":"-","m4_flag":"-","location1":"MASSACHUSETTS","sort_order":"20225100285","geocode":{"type":"Point","coordinates":[-71.05675,42.35866]}}
        ,{"states":"NEW HAMPSHIRE","year":"2022","week":"51","label":"Arboviral diseases, La Crosse  virus disease","m1_flag":"-","m2":"0","m2_flag":"-","m3_flag":"-","m4_flag":"-","location1":"NEW HAMPSHIRE","sort_order":"20225100286","geocode":{"type":"Point","coordinates":[-71.53661,43.20725]}}
        ,{"states":"RHODE ISLAND","year":"2022","week":"51","label":"Arboviral diseases, La Crosse  virus disease","m1_flag":"-","m2":"0","m2_flag":"-","m3_flag":"-","m4_flag":"-","location1":"RHODE ISLAND","sort_order":"20225100287","geocode":{"type":"Point","coordinates":[-71.41198,41.82388]}}
        ,{"states":"VERMONT","year":"2022","week":"51","label":"Arboviral diseases, La Crosse  virus disease","m1_flag":"-","m2":"0","m2_flag":"-","m3_flag":"-","m4_flag":"-","location1":"VERMONT","sort_order":"20225100288","geocode":{"type":"Point","coordinates":[-72.57627,44.26029]}}
        ,{"states":"MIDDLE ATLANTIC","year":"2022","week":"51","label":"Arboviral diseases, La Crosse  virus disease","m1_flag":"-","m2":"0","m2_flag":"-","m3_flag":"-","m4_flag":"-","location2":"MIDDLE ATLANTIC","sort_order":"20225100289"}
        ,{"states":"NEW JERSEY","year":"2022","week":"51","label":"Arboviral diseases, La Crosse  virus disease","m1_flag":"-","m2":"0","m2_flag":"-","m3_flag":"-","m4_flag":"-","location1":"NEW JERSEY","sort_order":"20225100290","geocode":{"type":"Point","coordinates":[-74.75942,40.21789]}}
        ,{"states":"NEW YORK","year":"2022","week":"51","label":"Arboviral diseases, La Crosse  virus disease","m1_flag":"-","m2":"0","m2_flag":"-","m3_flag":"-","m4_flag":"-","location1":"NEW YORK","sort_order":"20225100291","geocode":{"type":"Point","coordinates":[-73.75522,42.65155]}}
        ,{"states":"NEW YORK CITY","year":"2022","week":"51","label":"Arboviral diseases, La Crosse  virus disease","m1_flag":"-","m2":"0","m2_flag":"-","m3_flag":"-","m4_flag":"-","location1":"NEW YORK CITY","sort_order":"20225100292","geocode":{"type":"Point","coordinates":[-73.75522,42.65155]}}
        ,{"states":"PENNSYLVANIA","year":"2022","week":"51","label":"Arboviral diseases, La Crosse  virus disease","m1_flag":"-","m2":"0","m2_flag":"-","m3_flag":"-","m4_flag":"-","location1":"PENNSYLVANIA","sort_order":"20225100293","geocode":{"type":"Point","coordinates":[-76.88224,40.25986]}}
        ,{"states":"EAST NORTH CENTRAL","year":"2022","week":"51","label":"Arboviral diseases, La Crosse  virus disease","m1_flag":"-","m2":"4","m2_flag":"-","m3":"13","m3_flag":"-","m4":"23","m4_flag":"-","location2":"EAST NORTH CENTRAL","sort_order":"20225100294"}
        ,{"states":"ILLINOIS","year":"2022","week":"51","label":"Arboviral diseases, La Crosse  virus disease","m1_flag":"-","m2":"0","m2_flag":"-","m3_flag":"-","m4":"1","m4_flag":"-","location1":"ILLINOIS","sort_order":"20225100295","geocode":{"type":"Point","coordinates":[-89.64361,39.8013]}}
        ,{"states":"INDIANA","year":"2022","week":"51","label":"Arboviral diseases, La Crosse  virus disease","m1_flag":"-","m2":"0","m2_flag":"-","m3_flag":"-","m4":"1","m4_flag":"-","location1":"INDIANA","sort_order":"20225100296","geocode":{"type":"Point","coordinates":[-86.15013,39.76691]}}
        ,{"states":"MICHIGAN","year":"2022","week":"51","label":"Arboviral diseases, La Crosse  virus disease","m1_flag":"-","m2":"0","m2_flag":"-","m3_flag":"-","m4":"1","m4_flag":"-","location1":"MICHIGAN","sort_order":"20225100297","geocode":{"type":"Point","coordinates":[-84.55226,42.73194]}}
        ,{"states":"OHIO","year":"2022","week":"51","label":"Arboviral diseases, La Crosse  virus disease","m1_flag":"-","m2":"4","m2_flag":"-","m3":"13","m3_flag":"-","m4":"18","m4_flag":"-","location1":"OHIO","sort_order":"20225100298","geocode":{"type":"Point","coordinates":[-83.00276,39.96199]}}
        ,{"states":"WISCONSIN","year":"2022","week":"51","label":"Arboviral diseases, La Crosse  virus disease","m1_flag":"-","m2":"0","m2_flag":"-","m3_flag":"-","m4":"2","m4_flag":"-","location1":"WISCONSIN","sort_order":"20225100299","geocode":{"type":"Point","coordinates":[-89.38645,43.07313]}}
        ,{"states":"WEST NORTH CENTRAL","year":"2022","week":"51","label":"Arboviral diseases, La Crosse  virus disease","m1_flag":"-","m2":"1","m2_flag":"-","m3":"3","m3_flag":"-","m4_flag":"-","location2":"WEST NORTH CENTRAL","sort_order":"20225100300"}
        ,{"states":"IOWA","year":"2022","week":"51","label":"Arboviral diseases, La Crosse  virus disease","m1_flag":"-","m2":"0","m2_flag":"-","m3_flag":"-","m4_flag":"-","location1":"IOWA","sort_order":"20225100301","geocode":{"type":"Point","coordinates":[-93.61539,41.58981]}}
        ,{"states":"KANSAS","year":"2022","week":"51","label":"Arboviral diseases, La Crosse  virus disease","m1_flag":"-","m2":"0","m2_flag":"-","m3_flag":"-","m4_flag":"-","location1":"KANSAS","sort_order":"20225100302","geocode":{"type":"Point","coordinates":[-95.67119,39.04928]}}
        ,{"states":"MINNESOTA","year":"2022","week":"51","label":"Arboviral diseases, La Crosse  virus disease","m1_flag":"-","m2":"1","m2_flag":"-","m3":"3","m3_flag":"-","m4_flag":"-","location1":"MINNESOTA","sort_order":"20225100303","geocode":{"type":"Point","coordinates":[-93.09649,44.94339]}}
        ,{"states":"MISSOURI","year":"2022","week":"51","label":"Arboviral diseases, La Crosse  virus disease","m1_flag":"-","m2":"0","m2_flag":"-","m3_flag":"-","m4_flag":"-","location1":"MISSOURI","sort_order":"20225100304","geocode":{"type":"Point","coordinates":[-92.17785,38.57751]}}
        ,{"states":"NEBRASKA","year":"2022","week":"51","label":"Arboviral diseases, La Crosse  virus disease","m1_flag":"-","m2":"0","m2_flag":"-","m3_flag":"-","m4_flag":"-","location1":"NEBRASKA","sort_order":"20225100305","geocode":{"type":"Point","coordinates":[-96.70731,40.81362]}}
        ,{"states":"NORTH DAKOTA","year":"2022","week":"51","label":"Arboviral diseases, La Crosse  virus disease","m1_flag":"-","m2":"0","m2_flag":"-","m3_flag":"-","m4_flag":"-","location1":"NORTH DAKOTA","sort_order":"20225100306","geocode":{"type":"Point","coordinates":[-100.77969,46.80536]}}
        ,{"states":"SOUTH DAKOTA","year":"2022","week":"51","label":"Arboviral diseases, La Crosse  virus disease","m1_flag":"-","m2":"0","m2_flag":"-","m3_flag":"-","m4_flag":"-","location1":"SOUTH DAKOTA","sort_order":"20225100307","geocode":{"type":"Point","coordinates":[-100.34987,44.36917]}}
        ,{"states":"SOUTH ATLANTIC","year":"2022","week":"51","label":"Arboviral diseases, La Crosse  virus disease","m1_flag":"-","m2":"1","m2_flag":"-","m3":"3","m3_flag":"-","m4":"10","m4_flag":"-","location2":"SOUTH ATLANTIC","sort_order":"20225100308"}
        ,{"states":"DELAWARE","year":"2022","week":"51","label":"Arboviral diseases, La Crosse  virus disease","m1_flag":"-","m2":"0","m2_flag":"-","m3_flag":"-","m4_flag":"-","location1":"DELAWARE","sort_order":"20225100309","geocode":{"type":"Point","coordinates":[-75.52474,39.15803]}}
        ,{"states":"DISTRICT OF COLUMBIA","year":"2022","week":"51","label":"Arboviral diseases, La Crosse  virus disease","m1_flag":"-","m2":"0","m2_flag":"-","m3_flag":"-","m4_flag":"-","location1":"DISTRICT OF COLUMBIA","sort_order":"20225100310"}
        ,{"states":"FLORIDA","year":"2022","week":"51","label":"Arboviral diseases, La Crosse  virus disease","m1_flag":"-","m2":"0","m2_flag":"-","m3_flag":"-","m4_flag":"-","location1":"FLORIDA","sort_order":"20225100311","geocode":{"type":"Point","coordinates":[-84.28065,30.43977]}}
        ,{"states":"GEORGIA","year":"2022","week":"51","label":"Arboviral diseases, La Crosse  virus disease","m1_flag":"-","m2":"0","m2_flag":"-","m3_flag":"-","m4_flag":"-","location1":"GEORGIA","sort_order":"20225100312","geocode":{"type":"Point","coordinates":[-84.39111,33.74831]}}
        ,{"states":"MARYLAND","year":"2022","week":"51","label":"Arboviral diseases, La Crosse  virus disease","m1_flag":"-","m2":"0","m2_flag":"-","m3_flag":"-","m4_flag":"-","location1":"MARYLAND","sort_order":"20225100313","geocode":{"type":"Point","coordinates":[-76.49015,38.97678]}}
        ,{"states":"NORTH CAROLINA","year":"2022","week":"51","label":"Arboviral diseases, La Crosse  virus disease","m1_flag":"-","m2":"1","m2_flag":"-","m3":"2","m3_flag":"-","m4":"9","m4_flag":"-","location1":"NORTH CAROLINA","sort_order":"20225100314","geocode":{"type":"Point","coordinates":[-78.6427,35.78547]}}
        ,{"states":"SOUTH CAROLINA","year":"2022","week":"51","label":"Arboviral diseases, La Crosse  virus disease","m1_flag":"-","m2":"0","m2_flag":"-","m3_flag":"-","m4_flag":"-","location1":"SOUTH CAROLINA","sort_order":"20225100315","geocode":{"type":"Point","coordinates":[-81.04537,33.99882]}}
        ,{"states":"VIRGINIA","year":"2022","week":"51","label":"Arboviral diseases, La Crosse  virus disease","m1_flag":"-","m2":"0","m2_flag":"-","m3_flag":"-","m4_flag":"-","location1":"VIRGINIA","sort_order":"20225100316","geocode":{"type":"Point","coordinates":[-77.43367,37.54068]}}
        ,{"states":"WEST VIRGINIA","year":"2022","week":"51","label":"Arboviral diseases, La Crosse  virus disease","m1_flag":"-","m2":"1","m2_flag":"-","m3":"1","m3_flag":"-","m4":"1","m4_flag":"-","location1":"WEST VIRGINIA","sort_order":"20225100317","geocode":{"type":"Point","coordinates":[-81.63896,38.35016]}}
        ,{"states":"EAST SOUTH CENTRAL","year":"2022","week":"51","label":"Arboviral diseases, La Crosse  virus disease","m1_flag":"-","m2":"1","m2_flag":"-","m3":"2","m3_flag":"-","m4":"7","m4_flag":"-","location2":"EAST SOUTH CENTRAL","sort_order":"20225100318"}
        ,{"states":"ALABAMA","year":"2022","week":"51","label":"Arboviral diseases, La Crosse  virus disease","m1_flag":"-","m2":"0","m2_flag":"-","m3_flag":"-","m4_flag":"-","location1":"ALABAMA","sort_order":"20225100319","geocode":{"type":"Point","coordinates":[-86.30006,32.38015]}}
        ,{"states":"KENTUCKY","year":"2022","week":"51","label":"Arboviral diseases, La Crosse  virus disease","m1_flag":"-","m2":"0","m2_flag":"-","m3_flag":"-","m4_flag":"-","location1":"KENTUCKY","sort_order":"20225100320","geocode":{"type":"Point","coordinates":[-84.8787,38.19507]}}
        ,{"states":"MISSISSIPPI","year":"2022","week":"51","label":"Arboviral diseases, La Crosse  virus disease","m1_flag":"-","m2":"0","m2_flag":"-","m3_flag":"-","m4_flag":"-","location1":"MISSISSIPPI","sort_order":"20225100321","geocode":{"type":"Point","coordinates":[-90.18045,32.29896]}}
        ,{"states":"TENNESSEE","year":"2022","week":"51","label":"Arboviral diseases, La Crosse  virus disease","m1_flag":"-","m2":"1","m2_flag":"-","m3":"2","m3_flag":"-","m4":"7","m4_flag":"-","location1":"TENNESSEE","sort_order":"20225100322","geocode":{"type":"Point","coordinates":[-86.77817,36.16784]}}
        ,{"states":"WEST SOUTH CENTRAL","year":"2022","week":"51","label":"Arboviral diseases, La Crosse  virus disease","m1_flag":"-","m2":"0","m2_flag":"-","m3_flag":"-","m4_flag":"-","location2":"WEST SOUTH CENTRAL","sort_order":"20225100323"}
        ,{"states":"ARKANSAS","year":"2022","week":"51","label":"Arboviral diseases, La Crosse  virus disease","m1_flag":"-","m2":"0","m2_flag":"-","m3_flag":"-","m4_flag":"-","location1":"ARKANSAS","sort_order":"20225100324","geocode":{"type":"Point","coordinates":[-92.27486,34.7487]}}
        ,{"states":"LOUISIANA","year":"2022","week":"51","label":"Arboviral diseases, La Crosse  virus disease","m1_flag":"-","m2":"0","m2_flag":"-","m3_flag":"-","m4_flag":"-","location1":"LOUISIANA","sort_order":"20225100325","geocode":{"type":"Point","coordinates":[-91.18665,30.44335]}}
        ,{"states":"OKLAHOMA","year":"2022","week":"51","label":"Arboviral diseases, La Crosse  virus disease","m1_flag":"-","m2":"0","m2_flag":"-","m3_flag":"-","m4_flag":"-","location1":"OKLAHOMA","sort_order":"20225100326","geocode":{"type":"Point","coordinates":[-97.52107,35.47203]}}
        ,{"states":"TEXAS","year":"2022","week":"51","label":"Arboviral diseases, La Crosse  virus disease","m1_flag":"-","m2":"0","m2_flag":"-","m3_flag":"-","m4_flag":"-","location1":"TEXAS","sort_order":"20225100327","geocode":{"type":"Point","coordinates":[-97.743,30.26759]}}
        ,{"states":"MOUNTAIN","year":"2022","week":"51","label":"Arboviral diseases, La Crosse  virus disease","m1_flag":"-","m2":"0","m2_flag":"-","m3_flag":"-","m4_flag":"-","location2":"MOUNTAIN","sort_order":"20225100328"}
        ,{"states":"ARIZONA","year":"2022","week":"51","label":"Arboviral diseases, La Crosse  virus disease","m1_flag":"-","m2":"0","m2_flag":"-","m3_flag":"-","m4_flag":"-","location1":"ARIZONA","sort_order":"20225100329","geocode":{"type":"Point","coordinates":[-112.07581,33.44825]}}
        ,{"states":"COLORADO","year":"2022","week":"51","label":"Arboviral diseases, La Crosse  virus disease","m1_flag":"-","m2":"0","m2_flag":"-","m3_flag":"-","m4_flag":"-","location1":"COLORADO","sort_order":"20225100330","geocode":{"type":"Point","coordinates":[-104.99203,39.74001]}}
        ,{"states":"IDAHO","year":"2022","week":"51","label":"Arboviral diseases, La Crosse  virus disease","m1_flag":"-","m2":"0","m2_flag":"-","m3_flag":"-","m4_flag":"-","location1":"IDAHO","sort_order":"20225100331","geocode":{"type":"Point","coordinates":[-116.19341,43.60764]}}
        ,{"states":"MONTANA","year":"2022","week":"51","label":"Arboviral diseases, La Crosse  virus disease","m1_flag":"-","m2":"0","m2_flag":"-","m3_flag":"-","m4_flag":"-","location1":"MONTANA","sort_order":"20225100332","geocode":{"type":"Point","coordinates":[-112.02066,46.58976]}}
        ,{"states":"NEVADA","year":"2022","week":"51","label":"Arboviral diseases, La Crosse  virus disease","m1_flag":"-","m2":"0","m2_flag":"-","m3_flag":"-","m4_flag":"-","location1":"NEVADA","sort_order":"20225100333","geocode":{"type":"Point","coordinates":[-119.76698,39.16505]}}
        ,{"states":"NEW MEXICO","year":"2022","week":"51","label":"Arboviral diseases, La Crosse  virus disease","m1_flag":"-","m2":"0","m2_flag":"-","m3_flag":"-","m4_flag":"-","location1":"NEW MEXICO","sort_order":"20225100334","geocode":{"type":"Point","coordinates":[-105.93825,35.69177]}}
        ,{"states":"UTAH","year":"2022","week":"51","label":"Arboviral diseases, La Crosse  virus disease","m1_flag":"-","m2":"0","m2_flag":"-","m3_flag":"-","m4_flag":"-","location1":"UTAH","sort_order":"20225100335","geocode":{"type":"Point","coordinates":[-111.88822,40.76031]}}
        ,{"states":"WYOMING","year":"2022","week":"51","label":"Arboviral diseases, La Crosse  virus disease","m1_flag":"-","m2":"0","m2_flag":"-","m3_flag":"-","m4_flag":"-","location1":"WYOMING","sort_order":"20225100336","geocode":{"type":"Point","coordinates":[-104.82155,41.13481]}}
        ,{"states":"PACIFIC","year":"2022","week":"51","label":"Arboviral diseases, La Crosse  virus disease","m1_flag":"-","m2":"0","m2_flag":"-","m3_flag":"-","m4_flag":"-","location2":"PACIFIC","sort_order":"20225100337"}
        ,{"states":"ALASKA","year":"2022","week":"51","label":"Arboviral diseases, La Crosse  virus disease","m1_flag":"-","m2":"0","m2_flag":"-","m3_flag":"-","m4_flag":"-","location1":"ALASKA","sort_order":"20225100338","geocode":{"type":"Point","coordinates":[-134.40679,58.29973]}}
        ,{"states":"CALIFORNIA","year":"2022","week":"51","label":"Arboviral diseases, La Crosse  virus disease","m1_flag":"-","m2":"0","m2_flag":"-","m3_flag":"-","m4_flag":"-","location1":"CALIFORNIA","sort_order":"20225100339","geocode":{"type":"Point","coordinates":[-121.49086,38.57944]}}
        ,{"states":"HAWAII","year":"2022","week":"51","label":"Arboviral diseases, La Crosse  virus disease","m1_flag":"-","m2":"0","m2_flag":"-","m3_flag":"-","m4_flag":"-","location1":"HAWAII","sort_order":"20225100340","geocode":{"type":"Point","coordinates":[-157.85788,21.30493]}}
        ,{"states":"OREGON","year":"2022","week":"51","label":"Arboviral diseases, La Crosse  virus disease","m1_flag":"-","m2":"0","m2_flag":"-","m3_flag":"-","m4_flag":"-","location1":"OREGON","sort_order":"20225100341","geocode":{"type":"Point","coordinates":[-123.04382,44.93326]}}
        ,{"states":"WASHINGTON","year":"2022","week":"51","label":"Arboviral diseases, La Crosse  virus disease","m1_flag":"-","m2":"0","m2_flag":"-","m3_flag":"-","m4_flag":"-","location1":"WASHINGTON","sort_order":"20225100342","geocode":{"type":"Point","coordinates":[-122.89167,47.03956]}}
        ,{"states":"US TERRITORIES","year":"2022","week":"51","label":"Arboviral diseases, La Crosse  virus disease","m1_flag":"-","m2":"0","m2_flag":"-","m3_flag":"-","m4_flag":"-","location2":"US TERRITORIES","sort_order":"20225100343"}
        ,{"states":"AMERICAN SAMOA","year":"2022","week":"51","label":"Arboviral diseases, La Crosse  virus disease","m1_flag":"-","m2":"0","m2_flag":"-","m3_flag":"-","m4_flag":"-","location1":"AMERICAN SAMOA","sort_order":"20225100344"}
        ,{"states":"NORTHERN MARIANA ISLANDS","year":"2022","week":"51","label":"Arboviral diseases, La Crosse  virus disease","m1_flag":"-","m2":"0","m2_flag":"-","m3_flag":"-","m4_flag":"-","location1":"NORTHERN MARIANA ISLANDS","sort_order":"20225100345"}
        ,{"states":"GUAM","year":"2022","week":"51","label":"Arboviral diseases, La Crosse  virus disease","m1_flag":"-","m2":"0","m2_flag":"-","m3_flag":"-","m4_flag":"-","location1":"GUAM","sort_order":"20225100346"}
        ,{"states":"PUERTO RICO","year":"2022","week":"51","label":"Arboviral diseases, La Crosse  virus disease","m1_flag":"-","m2":"0","m2_flag":"-","m3_flag":"-","m4_flag":"-","location1":"PUERTO RICO","sort_order":"20225100347","geocode":{"type":"Point","coordinates":[-66.10474,18.46633]}}
        ,{"states":"U.S. VIRGIN ISLANDS","year":"2022","week":"51","label":"Arboviral diseases, La Crosse  virus disease","m1_flag":"-","m2":"0","m2_flag":"-","m3_flag":"-","m4_flag":"-","location1":"U.S. VIRGIN ISLANDS","sort_order":"20225100348"}
        ,{"states":"NON-US RESIDENTS","year":"2022","week":"51","label":"Arboviral diseases, La Crosse  virus disease","m1_flag":"-","m2":"0","m2_flag":"-","m3_flag":"-","m4_flag":"-","location2":"NON-US RESIDENTS","sort_order":"20225100349"}
        ,{"states":"TOTAL","year":"2022","week":"51","label":"Arboviral diseases, La Crosse  virus disease","m1_flag":"-","m2":"4","m2_flag":"-","m3":"21","m3_flag":"-","m4":"40","m4_flag":"-","location2":"TOTAL","sort_order":"20225100350"}
        ,{"states":"US RESIDENTS","year":"2022","week":"51","label":"Arboviral diseases, Powassan virus disease","m1_flag":"-","m2":"4","m2_flag":"-","m3":"34","m3_flag":"-","m4":"25","m4_flag":"-","location2":"US RESIDENTS","sort_order":"20225100351"}
        ,{"states":"NEW ENGLAND","year":"2022","week":"51","label":"Arboviral diseases, Powassan virus disease","m1_flag":"-","m2":"2","m2_flag":"-","m3":"13","m3_flag":"-","m4":"13","m4_flag":"-","location2":"NEW ENGLAND","sort_order":"20225100352"}
        ,{"states":"CONNECTICUT","year":"2022","week":"51","label":"Arboviral diseases, Powassan virus disease","m1_flag":"-","m2":"1","m2_flag":"-","m3":"4","m3_flag":"-","m4":"3","m4_flag":"-","location1":"CONNECTICUT","sort_order":"20225100353","geocode":{"type":"Point","coordinates":[-72.67399,41.76376]}}
