---
http_interactions:
- request:
    method: get
    uri: https://data.cdc.gov/resource/x9gk-5huc.json?week=52
    body:
      encoding: US-ASCII
      string: ''
    headers:
      User-Agent:
      - Faraday v2.7.2
      Accept-Encoding:
      - gzip;q=1.0,deflate;q=0.6,identity;q=0.3
      Accept:
      - "*/*"
  response:
    status:
      code: 200
      message: OK
    headers:
      Server:
      - nginx
      Date:
      - Mon, 09 Jan 2023 09:08:29 GMT
      Content-Type:
      - application/json;charset=utf-8
      Transfer-Encoding:
      - chunked
      Connection:
      - keep-alive
      Access-Control-Allow-Origin:
      - "*"
      Etag:
      - '"YWxwaGEuMzA3NTM3XzVfMTY1T1dkM2lrczRzY3VfMF94eVRxMFJCRUxLUWhJ---gzip3JiL90B9dc5oqwTYGEktsyhr2GI--gzip--gzip"'
      X-Soda2-Fields:
      - '["states","year","week","label","m1","m1_flag","m2","m2_flag","m3","m3_flag","m4","m4_flag","location1","location2","sort_order","geocode"]'
      X-Soda2-Types:
      - '["text","text","number","text","number","text","number","text","number","text","number","text","text","text","text","point"]'
      X-Soda2-Data-Out-Of-Date:
      - 'false'
      X-Soda2-Truth-Last-Modified:
      - Fri, 06 Jan 2023 16:38:25 GMT
      X-Soda2-Secondary-Last-Modified:
      - Fri, 06 Jan 2023 16:38:25 GMT
      Last-Modified:
      - Fri, 06 Jan 2023 16:38:25 GMT
      Vary:
      - Accept-Encoding
      Age:
      - '0'
      X-Socrata-Region:
      - aws-us-east-1-fedramp-prod
      Strict-Transport-Security:
      - max-age=31536000; includeSubDomains
      X-Socrata-Requestid:
      - 46e94228c5ceb0624ac6b986eeca0f90
    body:
      encoding: ASCII-8BIT
      string: |
        [{"states":"US RESIDENTS","year":"2022","week":"52","label":"Anthrax","m1_flag":"-","m2":"0","m2_flag":"-","m3_flag":"-","m4_flag":"-","location2":"US RESIDENTS","sort_order":"20225200001"}
        ,{"states":"NEW ENGLAND","year":"2022","week":"52","label":"Anthrax","m1_flag":"-","m2":"0","m2_flag":"-","m3_flag":"-","m4_flag":"-","location2":"NEW ENGLAND","sort_order":"20225200002"}
        ,{"states":"CONNECTICUT","year":"2022","week":"52","label":"Anthrax","m1_flag":"-","m2":"0","m2_flag":"-","m3_flag":"-","m4_flag":"-","location1":"CONNECTICUT","sort_order":"20225200003","geocode":{"type":"Point","coordinates":[-72.67399,41.76376]}}
        ,{"states":"MAINE","year":"2022","week":"52","label":"Anthrax","m1_flag":"-","m2":"0","m2_flag":"-","m3_flag":"-","m4_flag":"-","location1":"MAINE","sort_order":"20225200004","geocode":{"type":"Point","coordinates":[-69.77631,44.31804]}}
        ,{"states":"MASSACHUSETTS","year":"2022","week":"52","label":"Anthrax","m1_flag":"-","m2":"0","m2_flag":"-","m3_flag":"-","m4_flag":"-","location1":"MASSACHUSETTS","sort_order":"20225200005","geocode":{"type":"Point","coordinates":[-71.05675,42.35866]}}
        ,{"states":"NEW HAMPSHIRE","year":"2022","week":"52","label":"Anthrax","m1_flag":"-","m2":"0","m2_flag":"-","m3_flag":"-","m4_flag":"-","location1":"NEW HAMPSHIRE","sort_order":"20225200006","geocode":{"type":"Point","coordinates":[-71.53661,43.20725]}}
        ,{"states":"RHODE ISLAND","year":"2022","week":"52","label":"Anthrax","m1_flag":"-","m2":"0","m2_flag":"-","m3_flag":"-","m4_flag":"-","location1":"RHODE ISLAND","sort_order":"20225200007","geocode":{"type":"Point","coordinates":[-71.41198,41.82388]}}
        ,{"states":"VERMONT","year":"2022","week":"52","label":"Anthrax","m1_flag":"-","m2":"0","m2_flag":"-","m3_flag":"-","m4_flag":"-","location1":"VERMONT","sort_order":"20225200008","geocode":{"type":"Point","coordinates":[-72.57627,44.26029]}}
        ,{"states":"MIDDLE ATLANTIC","year":"2022","week":"52","label":"Anthrax","m1_flag":"-","m2":"0","m2_flag":"-","m3_flag":"-","m4_flag":"-","location2":"MIDDLE ATLANTIC","sort_order":"20225200009"}
        ,{"states":"NEW JERSEY","year":"2022","week":"52","label":"Anthrax","m1_flag":"-","m2":"0","m2_flag":"-","m3_flag":"-","m4_flag":"-","location1":"NEW JERSEY","sort_order":"20225200010","geocode":{"type":"Point","coordinates":[-74.75942,40.21789]}}
        ,{"states":"NEW YORK","year":"2022","week":"52","label":"Anthrax","m1_flag":"-","m2":"0","m2_flag":"-","m3_flag":"-","m4_flag":"-","location1":"NEW YORK","sort_order":"20225200011","geocode":{"type":"Point","coordinates":[-73.75522,42.65155]}}
        ,{"states":"NEW YORK CITY","year":"2022","week":"52","label":"Anthrax","m1_flag":"-","m2":"0","m2_flag":"-","m3_flag":"-","m4_flag":"-","location1":"NEW YORK CITY","sort_order":"20225200012","geocode":{"type":"Point","coordinates":[-73.75522,42.65155]}}
        ,{"states":"PENNSYLVANIA","year":"2022","week":"52","label":"Anthrax","m1_flag":"-","m2":"0","m2_flag":"-","m3_flag":"-","m4_flag":"-","location1":"PENNSYLVANIA","sort_order":"20225200013","geocode":{"type":"Point","coordinates":[-76.88224,40.25986]}}
        ,{"states":"EAST NORTH CENTRAL","year":"2022","week":"52","label":"Anthrax","m1_flag":"-","m2":"0","m2_flag":"-","m3_flag":"-","m4_flag":"-","location2":"EAST NORTH CENTRAL","sort_order":"20225200014"}
        ,{"states":"ILLINOIS","year":"2022","week":"52","label":"Anthrax","m1_flag":"-","m2":"0","m2_flag":"-","m3_flag":"-","m4_flag":"-","location1":"ILLINOIS","sort_order":"20225200015","geocode":{"type":"Point","coordinates":[-89.64361,39.8013]}}
        ,{"states":"INDIANA","year":"2022","week":"52","label":"Anthrax","m1_flag":"-","m2":"0","m2_flag":"-","m3_flag":"-","m4_flag":"-","location1":"INDIANA","sort_order":"20225200016","geocode":{"type":"Point","coordinates":[-86.15013,39.76691]}}
        ,{"states":"MICHIGAN","year":"2022","week":"52","label":"Anthrax","m1_flag":"-","m2":"0","m2_flag":"-","m3_flag":"-","m4_flag":"-","location1":"MICHIGAN","sort_order":"20225200017","geocode":{"type":"Point","coordinates":[-84.55226,42.73194]}}
        ,{"states":"OHIO","year":"2022","week":"52","label":"Anthrax","m1_flag":"-","m2":"0","m2_flag":"-","m3_flag":"-","m4_flag":"-","location1":"OHIO","sort_order":"20225200018","geocode":{"type":"Point","coordinates":[-83.00276,39.96199]}}
        ,{"states":"WISCONSIN","year":"2022","week":"52","label":"Anthrax","m1_flag":"-","m2":"0","m2_flag":"-","m3_flag":"-","m4_flag":"-","location1":"WISCONSIN","sort_order":"20225200019","geocode":{"type":"Point","coordinates":[-89.38645,43.07313]}}
        ,{"states":"WEST NORTH CENTRAL","year":"2022","week":"52","label":"Anthrax","m1_flag":"-","m2":"0","m2_flag":"-","m3_flag":"-","m4_flag":"-","location2":"WEST NORTH CENTRAL","sort_order":"20225200020"}
        ,{"states":"IOWA","year":"2022","week":"52","label":"Anthrax","m1_flag":"-","m2":"0","m2_flag":"-","m3_flag":"-","m4_flag":"-","location1":"IOWA","sort_order":"20225200021","geocode":{"type":"Point","coordinates":[-93.61539,41.58981]}}
        ,{"states":"KANSAS","year":"2022","week":"52","label":"Anthrax","m1_flag":"-","m2":"0","m2_flag":"-","m3_flag":"-","m4_flag":"-","location1":"KANSAS","sort_order":"20225200022","geocode":{"type":"Point","coordinates":[-95.67119,39.04928]}}
        ,{"states":"MINNESOTA","year":"2022","week":"52","label":"Anthrax","m1_flag":"-","m2":"0","m2_flag":"-","m3_flag":"-","m4_flag":"-","location1":"MINNESOTA","sort_order":"20225200023","geocode":{"type":"Point","coordinates":[-93.09649,44.94339]}}
        ,{"states":"MISSOURI","year":"2022","week":"52","label":"Anthrax","m1_flag":"-","m2":"0","m2_flag":"-","m3_flag":"-","m4_flag":"-","location1":"MISSOURI","sort_order":"20225200024","geocode":{"type":"Point","coordinates":[-92.17785,38.57751]}}
        ,{"states":"NEBRASKA","year":"2022","week":"52","label":"Anthrax","m1_flag":"-","m2":"0","m2_flag":"-","m3_flag":"-","m4_flag":"-","location1":"NEBRASKA","sort_order":"20225200025","geocode":{"type":"Point","coordinates":[-96.70731,40.81362]}}
        ,{"states":"NORTH DAKOTA","year":"2022","week":"52","label":"Anthrax","m1_flag":"-","m2":"0","m2_flag":"-","m3_flag":"-","m4_flag":"-","location1":"NORTH DAKOTA","sort_order":"20225200026","geocode":{"type":"Point","coordinates":[-100.77969,46.80536]}}
        ,{"states":"SOUTH DAKOTA","year":"2022","week":"52","label":"Anthrax","m1_flag":"-","m2":"0","m2_flag":"-","m3_flag":"-","m4_flag":"-","location1":"SOUTH DAKOTA","sort_order":"20225200027","geocode":{"type":"Point","coordinates":[-100.34987,44.36917]}}
        ,{"states":"SOUTH ATLANTIC","year":"2022","week":"52","label":"Anthrax","m1_flag":"-","m2":"0","m2_flag":"-","m3_flag":"-","m4_flag":"-","location2":"SOUTH ATLANTIC","sort_order":"20225200028"}
        ,{"states":"DELAWARE","year":"2022","week":"52","label":"Anthrax","m1_flag":"-","m2":"0","m2_flag":"-","m3_flag":"-","m4_flag":"-","location1":"DELAWARE","sort_order":"20225200029","geocode":{"type":"Point","coordinates":[-75.52474,39.15803]}}
        ,{"states":"DISTRICT OF COLUMBIA","year":"2022","week":"52","label":"Anthrax","m1_flag":"-","m2":"0","m2_flag":"-","m3_flag":"-","m4_flag":"-","location1":"DISTRICT OF COLUMBIA","sort_order":"20225200030"}
        ,{"states":"FLORIDA","year":"2022","week":"52","label":"Anthrax","m1_flag":"-","m2":"0","m2_flag":"-","m3_flag":"-","m4_flag":"-","location1":"FLORIDA","sort_order":"20225200031","geocode":{"type":"Point","coordinates":[-84.28065,30.43977]}}
        ,{"states":"GEORGIA","year":"2022","week":"52","label":"Anthrax","m1_flag":"-","m2":"0","m2_flag":"-","m3_flag":"-","m4_flag":"-","location1":"GEORGIA","sort_order":"20225200032","geocode":{"type":"Point","coordinates":[-84.39111,33.74831]}}
        ,{"states":"MARYLAND","year":"2022","week":"52","label":"Anthrax","m1_flag":"-","m2":"0","m2_flag":"-","m3_flag":"-","m4_flag":"-","location1":"MARYLAND","sort_order":"20225200033","geocode":{"type":"Point","coordinates":[-76.49015,38.97678]}}
        ,{"states":"NORTH CAROLINA","year":"2022","week":"52","label":"Anthrax","m1_flag":"-","m2":"0","m2_flag":"-","m3_flag":"-","m4_flag":"-","location1":"NORTH CAROLINA","sort_order":"20225200034","geocode":{"type":"Point","coordinates":[-78.6427,35.78547]}}
        ,{"states":"SOUTH CAROLINA","year":"2022","week":"52","label":"Anthrax","m1_flag":"-","m2":"0","m2_flag":"-","m3_flag":"-","m4_flag":"-","location1":"SOUTH CAROLINA","sort_order":"20225200035","geocode":{"type":"Point","coordinates":[-81.04537,33.99882]}}
        ,{"states":"VIRGINIA","year":"2022","week":"52","label":"Anthrax","m1_flag":"-","m2":"0","m2_flag":"-","m3_flag":"-","m4_flag":"-","location1":"VIRGINIA","sort_order":"20225200036","geocode":{"type":"Point","coordinates":[-77.43367,37.54068]}}
        ,{"states":"WEST VIRGINIA","year":"2022","week":"52","label":"Anthrax","m1_flag":"-","m2":"0","m2_flag":"-","m3_flag":"-","m4_flag":"-","location1":"WEST VIRGINIA","sort_order":"20225200037","geocode":{"type":"Point","coordinates":[-81.63896,38.35016]}}
        ,{"states":"EAST SOUTH CENTRAL","year":"2022","week":"52","label":"Anthrax","m1_flag":"-","m2":"0","m2_flag":"-","m3_flag":"-","m4_flag":"-","location2":"EAST SOUTH CENTRAL","sort_order":"20225200038"}
        ,{"states":"ALABAMA","year":"2022","week":"52","label":"Anthrax","m1_flag":"-","m2":"0","m2_flag":"-","m3_flag":"-","m4_flag":"-","location1":"ALABAMA","sort_order":"20225200039","geocode":{"type":"Point","coordinates":[-86.30006,32.38015]}}
        ,{"states":"KENTUCKY","year":"2022","week":"52","label":"Anthrax","m1_flag":"-","m2":"0","m2_flag":"-","m3_flag":"-","m4_flag":"-","location1":"KENTUCKY","sort_order":"20225200040","geocode":{"type":"Point","coordinates":[-84.8787,38.19507]}}
        ,{"states":"MISSISSIPPI","year":"2022","week":"52","label":"Anthrax","m1_flag":"-","m2":"0","m2_flag":"-","m3_flag":"-","m4_flag":"-","location1":"MISSISSIPPI","sort_order":"20225200041","geocode":{"type":"Point","coordinates":[-90.18045,32.29896]}}
        ,{"states":"TENNESSEE","year":"2022","week":"52","label":"Anthrax","m1_flag":"-","m2":"0","m2_flag":"-","m3_flag":"-","m4_flag":"-","location1":"TENNESSEE","sort_order":"20225200042","geocode":{"type":"Point","coordinates":[-86.77817,36.16784]}}
        ,{"states":"WEST SOUTH CENTRAL","year":"2022","week":"52","label":"Anthrax","m1_flag":"-","m2":"0","m2_flag":"-","m3_flag":"-","m4_flag":"-","location2":"WEST SOUTH CENTRAL","sort_order":"20225200043"}
        ,{"states":"ARKANSAS","year":"2022","week":"52","label":"Anthrax","m1_flag":"-","m2":"0","m2_flag":"-","m3_flag":"-","m4_flag":"-","location1":"ARKANSAS","sort_order":"20225200044","geocode":{"type":"Point","coordinates":[-92.27486,34.7487]}}
        ,{"states":"LOUISIANA","year":"2022","week":"52","label":"Anthrax","m1_flag":"-","m2":"0","m2_flag":"-","m3_flag":"-","m4_flag":"-","location1":"LOUISIANA","sort_order":"20225200045","geocode":{"type":"Point","coordinates":[-91.18665,30.44335]}}
        ,{"states":"OKLAHOMA","year":"2022","week":"52","label":"Anthrax","m1_flag":"-","m2":"0","m2_flag":"-","m3_flag":"-","m4_flag":"-","location1":"OKLAHOMA","sort_order":"20225200046","geocode":{"type":"Point","coordinates":[-97.52107,35.47203]}}
        ,{"states":"TEXAS","year":"2022","week":"52","label":"Anthrax","m1_flag":"-","m2":"0","m2_flag":"-","m3_flag":"-","m4_flag":"-","location1":"TEXAS","sort_order":"20225200047","geocode":{"type":"Point","coordinates":[-97.743,30.26759]}}
        ,{"states":"MOUNTAIN","year":"2022","week":"52","label":"Anthrax","m1_flag":"-","m2":"0","m2_flag":"-","m3_flag":"-","m4_flag":"-","location2":"MOUNTAIN","sort_order":"20225200048"}
        ,{"states":"ARIZONA","year":"2022","week":"52","label":"Anthrax","m1_flag":"-","m2":"0","m2_flag":"-","m3_flag":"-","m4_flag":"-","location1":"ARIZONA","sort_order":"20225200049","geocode":{"type":"Point","coordinates":[-112.07581,33.44825]}}
        ,{"states":"COLORADO","year":"2022","week":"52","label":"Anthrax","m1_flag":"-","m2":"0","m2_flag":"-","m3_flag":"-","m4_flag":"-","location1":"COLORADO","sort_order":"20225200050","geocode":{"type":"Point","coordinates":[-104.99203,39.74001]}}
        ,{"states":"IDAHO","year":"2022","week":"52","label":"Anthrax","m1_flag":"-","m2":"0","m2_flag":"-","m3_flag":"-","m4_flag":"-","location1":"IDAHO","sort_order":"20225200051","geocode":{"type":"Point","coordinates":[-116.19341,43.60764]}}
        ,{"states":"MONTANA","year":"2022","week":"52","label":"Anthrax","m1_flag":"-","m2":"0","m2_flag":"-","m3_flag":"-","m4_flag":"-","location1":"MONTANA","sort_order":"20225200052","geocode":{"type":"Point","coordinates":[-112.02066,46.58976]}}
        ,{"states":"NEVADA","year":"2022","week":"52","label":"Anthrax","m1_flag":"-","m2":"0","m2_flag":"-","m3_flag":"-","m4_flag":"-","location1":"NEVADA","sort_order":"20225200053","geocode":{"type":"Point","coordinates":[-119.76698,39.16505]}}
        ,{"states":"NEW MEXICO","year":"2022","week":"52","label":"Anthrax","m1_flag":"-","m2":"0","m2_flag":"-","m3_flag":"-","m4_flag":"-","location1":"NEW MEXICO","sort_order":"20225200054","geocode":{"type":"Point","coordinates":[-105.93825,35.69177]}}
        ,{"states":"UTAH","year":"2022","week":"52","label":"Anthrax","m1_flag":"-","m2":"0","m2_flag":"-","m3_flag":"-","m4_flag":"-","location1":"UTAH","sort_order":"20225200055","geocode":{"type":"Point","coordinates":[-111.88822,40.76031]}}
        ,{"states":"WYOMING","year":"2022","week":"52","label":"Anthrax","m1_flag":"-","m2":"0","m2_flag":"-","m3_flag":"-","m4_flag":"-","location1":"WYOMING","sort_order":"20225200056","geocode":{"type":"Point","coordinates":[-104.82155,41.13481]}}
        ,{"states":"PACIFIC","year":"2022","week":"52","label":"Anthrax","m1_flag":"-","m2":"0","m2_flag":"-","m3_flag":"-","m4_flag":"-","location2":"PACIFIC","sort_order":"20225200057"}
        ,{"states":"ALASKA","year":"2022","week":"52","label":"Anthrax","m1_flag":"-","m2":"0","m2_flag":"-","m3_flag":"-","m4_flag":"-","location1":"ALASKA","sort_order":"20225200058","geocode":{"type":"Point","coordinates":[-134.40679,58.29973]}}
        ,{"states":"CALIFORNIA","year":"2022","week":"52","label":"Anthrax","m1_flag":"-","m2":"0","m2_flag":"-","m3_flag":"-","m4_flag":"-","location1":"CALIFORNIA","sort_order":"20225200059","geocode":{"type":"Point","coordinates":[-121.49086,38.57944]}}
        ,{"states":"HAWAII","year":"2022","week":"52","label":"Anthrax","m1_flag":"-","m2":"0","m2_flag":"-","m3_flag":"-","m4_flag":"-","location1":"HAWAII","sort_order":"20225200060","geocode":{"type":"Point","coordinates":[-157.85788,21.30493]}}
        ,{"states":"OREGON","year":"2022","week":"52","label":"Anthrax","m1_flag":"-","m2":"0","m2_flag":"-","m3_flag":"-","m4_flag":"-","location1":"OREGON","sort_order":"20225200061","geocode":{"type":"Point","coordinates":[-123.04382,44.93326]}}
        ,{"states":"WASHINGTON","year":"2022","week":"52","label":"Anthrax","m1_flag":"-","m2":"0","m2_flag":"-","m3_flag":"-","m4_flag":"-","location1":"WASHINGTON","sort_order":"20225200062","geocode":{"type":"Point","coordinates":[-122.89167,47.03956]}}
        ,{"states":"US TERRITORIES","year":"2022","week":"52","label":"Anthrax","m1_flag":"-","m2":"0","m2_flag":"-","m3_flag":"-","m4_flag":"-","location2":"US TERRITORIES","sort_order":"20225200063"}
        ,{"states":"AMERICAN SAMOA","year":"2022","week":"52","label":"Anthrax","m1_flag":"-","m2":"0","m2_flag":"-","m3_flag":"-","m4_flag":"-","location1":"AMERICAN SAMOA","sort_order":"20225200064"}
        ,{"states":"NORTHERN MARIANA ISLANDS","year":"2022","week":"52","label":"Anthrax","m1_flag":"-","m2":"0","m2_flag":"-","m3_flag":"-","m4_flag":"-","location1":"NORTHERN MARIANA ISLANDS","sort_order":"20225200065"}
        ,{"states":"GUAM","year":"2022","week":"52","label":"Anthrax","m1_flag":"-","m2":"0","m2_flag":"-","m3_flag":"-","m4_flag":"-","location1":"GUAM","sort_order":"20225200066"}
        ,{"states":"PUERTO RICO","year":"2022","week":"52","label":"Anthrax","m1_flag":"-","m2":"0","m2_flag":"-","m3_flag":"-","m4_flag":"-","location1":"PUERTO RICO","sort_order":"20225200067","geocode":{"type":"Point","coordinates":[-66.10474,18.46633]}}
        ,{"states":"U.S. VIRGIN ISLANDS","year":"2022","week":"52","label":"Anthrax","m1_flag":"-","m2":"0","m2_flag":"-","m3_flag":"-","m4_flag":"-","location1":"U.S. VIRGIN ISLANDS","sort_order":"20225200068"}
        ,{"states":"NON-US RESIDENTS","year":"2022","week":"52","label":"Anthrax","m1_flag":"-","m2":"0","m2_flag":"-","m3_flag":"-","m4_flag":"-","location2":"NON-US RESIDENTS","sort_order":"20225200069"}
        ,{"states":"TOTAL","year":"2022","week":"52","label":"Anthrax","m1_flag":"-","m2":"0","m2_flag":"-","m3_flag":"-","m4_flag":"-","location2":"TOTAL","sort_order":"20225200070"}
        ,{"states":"US RESIDENTS","year":"2022","week":"52","label":"Arboviral diseases, Chikungunya virus disease","m1_flag":"-","m2":"3","m2_flag":"-","m3":"50","m3_flag":"-","m4":"35","m4_flag":"-","location2":"US RESIDENTS","sort_order":"20225200071"}
        ,{"states":"NEW ENGLAND","year":"2022","week":"52","label":"Arboviral diseases, Chikungunya virus disease","m1_flag":"-","m2":"1","m2_flag":"-","m3":"4","m3_flag":"-","m4":"1","m4_flag":"-","location2":"NEW ENGLAND","sort_order":"20225200072"}
        ,{"states":"CONNECTICUT","year":"2022","week":"52","label":"Arboviral diseases, Chikungunya virus disease","m1_flag":"-","m2":"0","m2_flag":"-","m3_flag":"-","m4_flag":"-","location1":"CONNECTICUT","sort_order":"20225200073","geocode":{"type":"Point","coordinates":[-72.67399,41.76376]}}
        ,{"states":"MAINE","year":"2022","week":"52","label":"Arboviral diseases, Chikungunya virus disease","m1_flag":"-","m2":"0","m2_flag":"-","m3_flag":"-","m4_flag":"-","location1":"MAINE","sort_order":"20225200074","geocode":{"type":"Point","coordinates":[-69.77631,44.31804]}}
        ,{"states":"MASSACHUSETTS","year":"2022","week":"52","label":"Arboviral diseases, Chikungunya virus disease","m1_flag":"-","m2":"1","m2_flag":"-","m3":"2","m3_flag":"-","m4":"1","m4_flag":"-","location1":"MASSACHUSETTS","sort_order":"20225200075","geocode":{"type":"Point","coordinates":[-71.05675,42.35866]}}
        ,{"states":"NEW HAMPSHIRE","year":"2022","week":"52","label":"Arboviral diseases, Chikungunya virus disease","m1_flag":"-","m2":"1","m2_flag":"-","m3":"1","m3_flag":"-","m4_flag":"-","location1":"NEW HAMPSHIRE","sort_order":"20225200076","geocode":{"type":"Point","coordinates":[-71.53661,43.20725]}}
        ,{"states":"RHODE ISLAND","year":"2022","week":"52","label":"Arboviral diseases, Chikungunya virus disease","m1_flag":"-","m2":"0","m2_flag":"-","m3_flag":"-","m4_flag":"-","location1":"RHODE ISLAND","sort_order":"20225200077","geocode":{"type":"Point","coordinates":[-71.41198,41.82388]}}
        ,{"states":"VERMONT","year":"2022","week":"52","label":"Arboviral diseases, Chikungunya virus disease","m1_flag":"-","m2":"1","m2_flag":"-","m3":"1","m3_flag":"-","m4_flag":"-","location1":"VERMONT","sort_order":"20225200078","geocode":{"type":"Point","coordinates":[-72.57627,44.26029]}}
        ,{"states":"MIDDLE ATLANTIC","year":"2022","week":"52","label":"Arboviral diseases, Chikungunya virus disease","m1_flag":"-","m2":"1","m2_flag":"-","m3":"10","m3_flag":"-","m4":"5","m4_flag":"-","location2":"MIDDLE ATLANTIC","sort_order":"20225200079"}
        ,{"states":"NEW JERSEY","year":"2022","week":"52","label":"Arboviral diseases, Chikungunya virus disease","m1_flag":"-","m2":"1","m2_flag":"-","m3":"1","m3_flag":"-","m4":"4","m4_flag":"-","location1":"NEW JERSEY","sort_order":"20225200080","geocode":{"type":"Point","coordinates":[-74.75942,40.21789]}}
        ,{"states":"NEW YORK","year":"2022","week":"52","label":"Arboviral diseases, Chikungunya virus disease","m1_flag":"-","m2":"1","m2_flag":"-","m3":"3","m3_flag":"-","m4_flag":"-","location1":"NEW YORK","sort_order":"20225200081","geocode":{"type":"Point","coordinates":[-73.75522,42.65155]}}
        ,{"states":"NEW YORK CITY","year":"2022","week":"52","label":"Arboviral diseases, Chikungunya virus disease","m1_flag":"-","m2":"1","m2_flag":"-","m3":"4","m3_flag":"-","m4":"1","m4_flag":"-","location1":"NEW YORK CITY","sort_order":"20225200082","geocode":{"type":"Point","coordinates":[-73.75522,42.65155]}}
        ,{"states":"PENNSYLVANIA","year":"2022","week":"52","label":"Arboviral diseases, Chikungunya virus disease","m1_flag":"-","m2":"1","m2_flag":"-","m3":"2","m3_flag":"-","m4_flag":"-","location1":"PENNSYLVANIA","sort_order":"20225200083","geocode":{"type":"Point","coordinates":[-76.88224,40.25986]}}
        ,{"states":"EAST NORTH CENTRAL","year":"2022","week":"52","label":"Arboviral diseases, Chikungunya virus disease","m1_flag":"-","m2":"2","m2_flag":"-","m3":"10","m3_flag":"-","m4":"2","m4_flag":"-","location2":"EAST NORTH CENTRAL","sort_order":"20225200084"}
        ,{"states":"ILLINOIS","year":"2022","week":"52","label":"Arboviral diseases, Chikungunya virus disease","m1_flag":"-","m2":"2","m2_flag":"-","m3":"8","m3_flag":"-","m4":"1","m4_flag":"-","location1":"ILLINOIS","sort_order":"20225200085","geocode":{"type":"Point","coordinates":[-89.64361,39.8013]}}
        ,{"states":"INDIANA","year":"2022","week":"52","label":"Arboviral diseases, Chikungunya virus disease","m1_flag":"-","m2":"0","m2_flag":"-","m3_flag":"-","m4":"1","m4_flag":"-","location1":"INDIANA","sort_order":"20225200086","geocode":{"type":"Point","coordinates":[-86.15013,39.76691]}}
        ,{"states":"MICHIGAN","year":"2022","week":"52","label":"Arboviral diseases, Chikungunya virus disease","m1_flag":"-","m2":"0","m2_flag":"-","m3_flag":"-","m4_flag":"-","location1":"MICHIGAN","sort_order":"20225200087","geocode":{"type":"Point","coordinates":[-84.55226,42.73194]}}
        ,{"states":"OHIO","year":"2022","week":"52","label":"Arboviral diseases, Chikungunya virus disease","m1_flag":"-","m2":"1","m2_flag":"-","m3":"2","m3_flag":"-","m4_flag":"-","location1":"OHIO","sort_order":"20225200088","geocode":{"type":"Point","coordinates":[-83.00276,39.96199]}}
        ,{"states":"WISCONSIN","year":"2022","week":"52","label":"Arboviral diseases, Chikungunya virus disease","m1_flag":"-","m2":"0","m2_flag":"-","m3_flag":"-","m4_flag":"-","location1":"WISCONSIN","sort_order":"20225200089","geocode":{"type":"Point","coordinates":[-89.38645,43.07313]}}
        ,{"states":"WEST NORTH CENTRAL","year":"2022","week":"52","label":"Arboviral diseases, Chikungunya virus disease","m1_flag":"-","m2":"1","m2_flag":"-","m3":"5","m3_flag":"-","m4":"4","m4_flag":"-","location2":"WEST NORTH CENTRAL","sort_order":"20225200090"}
        ,{"states":"IOWA","year":"2022","week":"52","label":"Arboviral diseases, Chikungunya virus disease","m1_flag":"-","m2":"1","m2_flag":"-","m3":"2","m3_flag":"-","m4_flag":"-","location1":"IOWA","sort_order":"20225200091","geocode":{"type":"Point","coordinates":[-93.61539,41.58981]}}
        ,{"states":"KANSAS","year":"2022","week":"52","label":"Arboviral diseases, Chikungunya virus disease","m1_flag":"-","m2":"1","m2_flag":"-","m3":"1","m3_flag":"-","m4_flag":"-","location1":"KANSAS","sort_order":"20225200092","geocode":{"type":"Point","coordinates":[-95.67119,39.04928]}}
        ,{"states":"MINNESOTA","year":"2022","week":"52","label":"Arboviral diseases, Chikungunya virus disease","m1_flag":"-","m2":"1","m2_flag":"-","m3":"2","m3_flag":"-","m4":"3","m4_flag":"-","location1":"MINNESOTA","sort_order":"20225200093","geocode":{"type":"Point","coordinates":[-93.09649,44.94339]}}
        ,{"states":"MISSOURI","year":"2022","week":"52","label":"Arboviral diseases, Chikungunya virus disease","m1_flag":"-","m2":"0","m2_flag":"-","m3_flag":"-","m4":"1","m4_flag":"-","location1":"MISSOURI","sort_order":"20225200094","geocode":{"type":"Point","coordinates":[-92.17785,38.57751]}}
        ,{"states":"NEBRASKA","year":"2022","week":"52","label":"Arboviral diseases, Chikungunya virus disease","m1_flag":"-","m2":"0","m2_flag":"-","m3_flag":"-","m4_flag":"-","location1":"NEBRASKA","sort_order":"20225200095","geocode":{"type":"Point","coordinates":[-96.70731,40.81362]}}
        ,{"states":"NORTH DAKOTA","year":"2022","week":"52","label":"Arboviral diseases, Chikungunya virus disease","m1_flag":"-","m2":"0","m2_flag":"-","m3_flag":"-","m4_flag":"-","location1":"NORTH DAKOTA","sort_order":"20225200096","geocode":{"type":"Point","coordinates":[-100.77969,46.80536]}}
        ,{"states":"SOUTH DAKOTA","year":"2022","week":"52","label":"Arboviral diseases, Chikungunya virus disease","m1_flag":"-","m2":"0","m2_flag":"-","m3_flag":"-","m4_flag":"-","location1":"SOUTH DAKOTA","sort_order":"20225200097","geocode":{"type":"Point","coordinates":[-100.34987,44.36917]}}
        ,{"states":"SOUTH ATLANTIC","year":"2022","week":"52","label":"Arboviral diseases, Chikungunya virus disease","m1_flag":"-","m2":"1","m2_flag":"-","m3":"7","m3_flag":"-","m4":"6","m4_flag":"-","location2":"SOUTH ATLANTIC","sort_order":"20225200098"}
        ,{"states":"DELAWARE","year":"2022","week":"52","label":"Arboviral diseases, Chikungunya virus disease","m1_flag":"-","m2":"0","m2_flag":"-","m3_flag":"-","m4_flag":"-","location1":"DELAWARE","sort_order":"20225200099","geocode":{"type":"Point","coordinates":[-75.52474,39.15803]}}
        ,{"states":"DISTRICT OF COLUMBIA","year":"2022","week":"52","label":"Arboviral diseases, Chikungunya virus disease","m1_flag":"-","m2":"0","m2_flag":"-","m3_flag":"-","m4_flag":"-","location1":"DISTRICT OF COLUMBIA","sort_order":"20225200100"}
        ,{"states":"FLORIDA","year":"2022","week":"52","label":"Arboviral diseases, Chikungunya virus disease","m1_flag":"-","m2":"0","m2_flag":"-","m3_flag":"-","m4":"1","m4_flag":"-","location1":"FLORIDA","sort_order":"20225200101","geocode":{"type":"Point","coordinates":[-84.28065,30.43977]}}
        ,{"states":"GEORGIA","year":"2022","week":"52","label":"Arboviral diseases, Chikungunya virus disease","m1_flag":"-","m2":"0","m2_flag":"-","m3_flag":"-","m4_flag":"-","location1":"GEORGIA","sort_order":"20225200102","geocode":{"type":"Point","coordinates":[-84.39111,33.74831]}}
        ,{"states":"MARYLAND","year":"2022","week":"52","label":"Arboviral diseases, Chikungunya virus disease","m1_flag":"-","m2":"1","m2_flag":"-","m3":"1","m3_flag":"-","m4_flag":"-","location1":"MARYLAND","sort_order":"20225200103","geocode":{"type":"Point","coordinates":[-76.49015,38.97678]}}
        ,{"states":"NORTH CAROLINA","year":"2022","week":"52","label":"Arboviral diseases, Chikungunya virus disease","m1_flag":"-","m2":"1","m2_flag":"-","m3":"3","m3_flag":"-","m4":"4","m4_flag":"-","location1":"NORTH CAROLINA","sort_order":"20225200104","geocode":{"type":"Point","coordinates":[-78.6427,35.78547]}}
        ,{"states":"SOUTH CAROLINA","year":"2022","week":"52","label":"Arboviral diseases, Chikungunya virus disease","m1_flag":"-","m2":"0","m2_flag":"-","m3_flag":"-","m4":"1","m4_flag":"-","location1":"SOUTH CAROLINA","sort_order":"20225200105","geocode":{"type":"Point","coordinates":[-81.04537,33.99882]}}
        ,{"states":"VIRGINIA","year":"2022","week":"52","label":"Arboviral diseases, Chikungunya virus disease","m1_flag":"-","m2":"1","m2_flag":"-","m3":"3","m3_flag":"-","m4_flag":"-","location1":"VIRGINIA","sort_order":"20225200106","geocode":{"type":"Point","coordinates":[-77.43367,37.54068]}}
        ,{"states":"WEST VIRGINIA","year":"2022","week":"52","label":"Arboviral diseases, Chikungunya virus disease","m1_flag":"-","m2":"0","m2_flag":"-","m3_flag":"-","m4_flag":"-","location1":"WEST VIRGINIA","sort_order":"20225200107","geocode":{"type":"Point","coordinates":[-81.63896,38.35016]}}
        ,{"states":"EAST SOUTH CENTRAL","year":"2022","week":"52","label":"Arboviral diseases, Chikungunya virus disease","m1_flag":"-","m2":"1","m2_flag":"-","m3":"3","m3_flag":"-","m4":"2","m4_flag":"-","location2":"EAST SOUTH CENTRAL","sort_order":"20225200108"}
        ,{"states":"ALABAMA","year":"2022","week":"52","label":"Arboviral diseases, Chikungunya virus disease","m1_flag":"-","m2":"0","m2_flag":"-","m3_flag":"-","m4_flag":"-","location1":"ALABAMA","sort_order":"20225200109","geocode":{"type":"Point","coordinates":[-86.30006,32.38015]}}
        ,{"states":"KENTUCKY","year":"2022","week":"52","label":"Arboviral diseases, Chikungunya virus disease","m1_flag":"-","m2":"1","m2_flag":"-","m3":"1","m3_flag":"-","m4":"1","m4_flag":"-","location1":"KENTUCKY","sort_order":"20225200110","geocode":{"type":"Point","coordinates":[-84.8787,38.19507]}}
        ,{"states":"MISSISSIPPI","year":"2022","week":"52","label":"Arboviral diseases, Chikungunya virus disease","m1_flag":"-","m2":"0","m2_flag":"-","m3_flag":"-","m4_flag":"-","location1":"MISSISSIPPI","sort_order":"20225200111","geocode":{"type":"Point","coordinates":[-90.18045,32.29896]}}
        ,{"states":"TENNESSEE","year":"2022","week":"52","label":"Arboviral diseases, Chikungunya virus disease","m1_flag":"-","m2":"1","m2_flag":"-","m3":"2","m3_flag":"-","m4":"1","m4_flag":"-","location1":"TENNESSEE","sort_order":"20225200112","geocode":{"type":"Point","coordinates":[-86.77817,36.16784]}}
        ,{"states":"WEST SOUTH CENTRAL","year":"2022","week":"52","label":"Arboviral diseases, Chikungunya virus disease","m1_flag":"-","m2":"1","m2_flag":"-","m3":"1","m3_flag":"-","m4":"1","m4_flag":"-","location2":"WEST SOUTH CENTRAL","sort_order":"20225200113"}
        ,{"states":"ARKANSAS","year":"2022","week":"52","label":"Arboviral diseases, Chikungunya virus disease","m1_flag":"-","m2":"0","m2_flag":"-","m3_flag":"-","m4_flag":"-","location1":"ARKANSAS","sort_order":"20225200114","geocode":{"type":"Point","coordinates":[-92.27486,34.7487]}}
        ,{"states":"LOUISIANA","year":"2022","week":"52","label":"Arboviral diseases, Chikungunya virus disease","m1_flag":"-","m2":"1","m2_flag":"-","m3":"1","m3_flag":"-","m4":"1","m4_flag":"-","location1":"LOUISIANA","sort_order":"20225200115","geocode":{"type":"Point","coordinates":[-91.18665,30.44335]}}
        ,{"states":"OKLAHOMA","year":"2022","week":"52","label":"Arboviral diseases, Chikungunya virus disease","m1_flag":"-","m2":"0","m2_flag":"-","m3_flag":"-","m4_flag":"-","location1":"OKLAHOMA","sort_order":"20225200116","geocode":{"type":"Point","coordinates":[-97.52107,35.47203]}}
        ,{"states":"TEXAS","year":"2022","week":"52","label":"Arboviral diseases, Chikungunya virus disease","m1_flag":"-","m2":"0","m2_flag":"-","m3_flag":"-","m4_flag":"-","location1":"TEXAS","sort_order":"20225200117","geocode":{"type":"Point","coordinates":[-97.743,30.26759]}}
        ,{"states":"MOUNTAIN","year":"2022","week":"52","label":"Arboviral diseases, Chikungunya virus disease","m1_flag":"-","m2":"1","m2_flag":"-","m3":"5","m3_flag":"-","m4":"4","m4_flag":"-","location2":"MOUNTAIN","sort_order":"20225200118"}
        ,{"states":"ARIZONA","year":"2022","week":"52","label":"Arboviral diseases, Chikungunya virus disease","m1_flag":"-","m2":"0","m2_flag":"-","m3_flag":"-","m4_flag":"-","location1":"ARIZONA","sort_order":"20225200119","geocode":{"type":"Point","coordinates":[-112.07581,33.44825]}}
        ,{"states":"COLORADO","year":"2022","week":"52","label":"Arboviral diseases, Chikungunya virus disease","m1_flag":"-","m2":"1","m2_flag":"-","m3":"3","m3_flag":"-","m4":"3","m4_flag":"-","location1":"COLORADO","sort_order":"20225200120","geocode":{"type":"Point","coordinates":[-104.99203,39.74001]}}
        ,{"states":"IDAHO","year":"2022","week":"52","label":"Arboviral diseases, Chikungunya virus disease","m1_flag":"-","m2":"0","m2_flag":"-","m3_flag":"-","m4_flag":"-","location1":"IDAHO","sort_order":"20225200121","geocode":{"type":"Point","coordinates":[-116.19341,43.60764]}}
        ,{"states":"MONTANA","year":"2022","week":"52","label":"Arboviral diseases, Chikungunya virus disease","m1_flag":"-","m2":"0","m2_flag":"-","m3_flag":"-","m4_flag":"-","location1":"MONTANA","sort_order":"20225200122","geocode":{"type":"Point","coordinates":[-112.02066,46.58976]}}
        ,{"states":"NEVADA","year":"2022","week":"52","label":"Arboviral diseases, Chikungunya virus disease","m1_flag":"-","m2":"0","m2_flag":"-","m3_flag":"-","m4_flag":"-","location1":"NEVADA","sort_order":"20225200123","geocode":{"type":"Point","coordinates":[-119.76698,39.16505]}}
        ,{"states":"NEW MEXICO","year":"2022","week":"52","label":"Arboviral diseases, Chikungunya virus disease","m1_flag":"-","m2":"1","m2_flag":"-","m3":"1","m3_flag":"-","m4":"1","m4_flag":"-","location1":"NEW MEXICO","sort_order":"20225200124","geocode":{"type":"Point","coordinates":[-105.93825,35.69177]}}
        ,{"states":"UTAH","year":"2022","week":"52","label":"Arboviral diseases, Chikungunya virus disease","m1_flag":"-","m2":"1","m2_flag":"-","m3":"1","m3_flag":"-","m4_flag":"-","location1":"UTAH","sort_order":"20225200125","geocode":{"type":"Point","coordinates":[-111.88822,40.76031]}}
        ,{"states":"WYOMING","year":"2022","week":"52","label":"Arboviral diseases, Chikungunya virus disease","m1_flag":"-","m2":"0","m2_flag":"-","m3_flag":"-","m4_flag":"-","location1":"WYOMING","sort_order":"20225200126","geocode":{"type":"Point","coordinates":[-104.82155,41.13481]}}
        ,{"states":"PACIFIC","year":"2022","week":"52","label":"Arboviral diseases, Chikungunya virus disease","m1_flag":"-","m2":"1","m2_flag":"-","m3":"5","m3_flag":"-","m4":"10","m4_flag":"-","location2":"PACIFIC","sort_order":"20225200127"}
        ,{"states":"ALASKA","year":"2022","week":"52","label":"Arboviral diseases, Chikungunya virus disease","m1_flag":"-","m2":"0","m2_flag":"-","m3_flag":"-","m4_flag":"-","location1":"ALASKA","sort_order":"20225200128","geocode":{"type":"Point","coordinates":[-134.40679,58.29973]}}
        ,{"states":"CALIFORNIA","year":"2022","week":"52","label":"Arboviral diseases, Chikungunya virus disease","m1_flag":"-","m2":"1","m2_flag":"-","m3":"4","m3_flag":"-","m4":"7","m4_flag":"-","location1":"CALIFORNIA","sort_order":"20225200129","geocode":{"type":"Point","coordinates":[-121.49086,38.57944]}}
        ,{"states":"HAWAII","year":"2022","week":"52","label":"Arboviral diseases, Chikungunya virus disease","m1_flag":"-","m2":"0","m2_flag":"-","m3_flag":"-","m4_flag":"-","location1":"HAWAII","sort_order":"20225200130","geocode":{"type":"Point","coordinates":[-157.85788,21.30493]}}
        ,{"states":"OREGON","year":"2022","week":"52","label":"Arboviral diseases, Chikungunya virus disease","m1_flag":"-","m2":"0","m2_flag":"-","m3_flag":"-","m4":"1","m4_flag":"-","location1":"OREGON","sort_order":"20225200131","geocode":{"type":"Point","coordinates":[-123.04382,44.93326]}}
        ,{"states":"WASHINGTON","year":"2022","week":"52","label":"Arboviral diseases, Chikungunya virus disease","m1_flag":"-","m2":"1","m2_flag":"-","m3":"1","m3_flag":"-","m4":"2","m4_flag":"-","location1":"WASHINGTON","sort_order":"20225200132","geocode":{"type":"Point","coordinates":[-122.89167,47.03956]}}
        ,{"states":"US TERRITORIES","year":"2022","week":"52","label":"Arboviral diseases, Chikungunya virus disease","m1_flag":"-","m2":"0","m2_flag":"-","m3_flag":"-","m4_flag":"-","location2":"US TERRITORIES","sort_order":"20225200133"}
        ,{"states":"AMERICAN SAMOA","year":"2022","week":"52","label":"Arboviral diseases, Chikungunya virus disease","m1_flag":"-","m2":"0","m2_flag":"-","m3_flag":"-","m4_flag":"-","location1":"AMERICAN SAMOA","sort_order":"20225200134"}
        ,{"states":"NORTHERN MARIANA ISLANDS","year":"2022","week":"52","label":"Arboviral diseases, Chikungunya virus disease","m1_flag":"-","m2":"0","m2_flag":"-","m3_flag":"-","m4_flag":"-","location1":"NORTHERN MARIANA ISLANDS","sort_order":"20225200135"}
        ,{"states":"GUAM","year":"2022","week":"52","label":"Arboviral diseases, Chikungunya virus disease","m1_flag":"-","m2":"0","m2_flag":"-","m3_flag":"-","m4_flag":"-","location1":"GUAM","sort_order":"20225200136"}
        ,{"states":"PUERTO RICO","year":"2022","week":"52","label":"Arboviral diseases, Chikungunya virus disease","m1_flag":"-","m2":"0","m2_flag":"-","m3_flag":"-","m4_flag":"-","location1":"PUERTO RICO","sort_order":"20225200137","geocode":{"type":"Point","coordinates":[-66.10474,18.46633]}}
        ,{"states":"U.S. VIRGIN ISLANDS","year":"2022","week":"52","label":"Arboviral diseases, Chikungunya virus disease","m1_flag":"-","m2":"0","m2_flag":"-","m3_flag":"-","m4_flag":"-","location1":"U.S. VIRGIN ISLANDS","sort_order":"20225200138"}
        ,{"states":"NON-US RESIDENTS","year":"2022","week":"52","label":"Arboviral diseases, Chikungunya virus disease","m1_flag":"-","m2":"0","m2_flag":"-","m3_flag":"-","m4_flag":"-","location2":"NON-US RESIDENTS","sort_order":"20225200139"}
        ,{"states":"TOTAL","year":"2022","week":"52","label":"Arboviral diseases, Chikungunya virus disease","m1_flag":"-","m2":"3","m2_flag":"-","m3":"50","m3_flag":"-","m4":"35","m4_flag":"-","location2":"TOTAL","sort_order":"20225200140"}
        ,{"states":"US RESIDENTS","year":"2022","week":"52","label":"Arboviral diseases, Eastern equine encephalitis virus disease","m1_flag":"-","m2":"1","m2_flag":"-","m3":"1","m3_flag":"-","m4":"5","m4_flag":"-","location2":"US RESIDENTS","sort_order":"20225200141"}
        ,{"states":"NEW ENGLAND","year":"2022","week":"52","label":"Arboviral diseases, Eastern equine encephalitis virus disease","m1_flag":"-","m2":"0","m2_flag":"-","m3_flag":"-","m4_flag":"-","location2":"NEW ENGLAND","sort_order":"20225200142"}
        ,{"states":"CONNECTICUT","year":"2022","week":"52","label":"Arboviral diseases, Eastern equine encephalitis virus disease","m1_flag":"-","m2":"0","m2_flag":"-","m3_flag":"-","m4_flag":"-","location1":"CONNECTICUT","sort_order":"20225200143","geocode":{"type":"Point","coordinates":[-72.67399,41.76376]}}
        ,{"states":"MAINE","year":"2022","week":"52","label":"Arboviral diseases, Eastern equine encephalitis virus disease","m1_flag":"-","m2":"0","m2_flag":"-","m3_flag":"-","m4_flag":"-","location1":"MAINE","sort_order":"20225200144","geocode":{"type":"Point","coordinates":[-69.77631,44.31804]}}
        ,{"states":"MASSACHUSETTS","year":"2022","week":"52","label":"Arboviral diseases, Eastern equine encephalitis virus disease","m1_flag":"-","m2":"0","m2_flag":"-","m3_flag":"-","m4_flag":"-","location1":"MASSACHUSETTS","sort_order":"20225200145","geocode":{"type":"Point","coordinates":[-71.05675,42.35866]}}
        ,{"states":"NEW HAMPSHIRE","year":"2022","week":"52","label":"Arboviral diseases, Eastern equine encephalitis virus disease","m1_flag":"-","m2":"0","m2_flag":"-","m3_flag":"-","m4_flag":"-","location1":"NEW HAMPSHIRE","sort_order":"20225200146","geocode":{"type":"Point","coordinates":[-71.53661,43.20725]}}
        ,{"states":"RHODE ISLAND","year":"2022","week":"52","label":"Arboviral diseases, Eastern equine encephalitis virus disease","m1_flag":"-","m2":"0","m2_flag":"-","m3_flag":"-","m4_flag":"-","location1":"RHODE ISLAND","sort_order":"20225200147","geocode":{"type":"Point","coordinates":[-71.41198,41.82388]}}
        ,{"states":"VERMONT","year":"2022","week":"52","label":"Arboviral diseases, Eastern equine encephalitis virus disease","m1_flag":"-","m2":"0","m2_flag":"-","m3_flag":"-","m4_flag":"-","location1":"VERMONT","sort_order":"20225200148","geocode":{"type":"Point","coordinates":[-72.57627,44.26029]}}
        ,{"states":"MIDDLE ATLANTIC","year":"2022","week":"52","label":"Arboviral diseases, Eastern equine encephalitis virus disease","m1_flag":"-","m2":"0","m2_flag":"-","m3_flag":"-","m4_flag":"-","location2":"MIDDLE ATLANTIC","sort_order":"20225200149"}
        ,{"states":"NEW JERSEY","year":"2022","week":"52","label":"Arboviral diseases, Eastern equine encephalitis virus disease","m1_flag":"-","m2":"0","m2_flag":"-","m3_flag":"-","m4_flag":"-","location1":"NEW JERSEY","sort_order":"20225200150","geocode":{"type":"Point","coordinates":[-74.75942,40.21789]}}
        ,{"states":"NEW YORK","year":"2022","week":"52","label":"Arboviral diseases, Eastern equine encephalitis virus disease","m1_flag":"-","m2":"0","m2_flag":"-","m3_flag":"-","m4_flag":"-","location1":"NEW YORK","sort_order":"20225200151","geocode":{"type":"Point","coordinates":[-73.75522,42.65155]}}
        ,{"states":"NEW YORK CITY","year":"2022","week":"52","label":"Arboviral diseases, Eastern equine encephalitis virus disease","m1_flag":"-","m2":"0","m2_flag":"-","m3_flag":"-","m4_flag":"-","location1":"NEW YORK CITY","sort_order":"20225200152","geocode":{"type":"Point","coordinates":[-73.75522,42.65155]}}
        ,{"states":"PENNSYLVANIA","year":"2022","week":"52","label":"Arboviral diseases, Eastern equine encephalitis virus disease","m1_flag":"-","m2":"0","m2_flag":"-","m3_flag":"-","m4_flag":"-","location1":"PENNSYLVANIA","sort_order":"20225200153","geocode":{"type":"Point","coordinates":[-76.88224,40.25986]}}
        ,{"states":"EAST NORTH CENTRAL","year":"2022","week":"52","label":"Arboviral diseases, Eastern equine encephalitis virus disease","m1_flag":"-","m2":"1","m2_flag":"-","m3":"1","m3_flag":"-","m4":"2","m4_flag":"-","location2":"EAST NORTH CENTRAL","sort_order":"20225200154"}
        ,{"states":"ILLINOIS","year":"2022","week":"52","label":"Arboviral diseases, Eastern equine encephalitis virus disease","m1_flag":"-","m2":"0","m2_flag":"-","m3_flag":"-","m4_flag":"-","location1":"ILLINOIS","sort_order":"20225200155","geocode":{"type":"Point","coordinates":[-89.64361,39.8013]}}
        ,{"states":"INDIANA","year":"2022","week":"52","label":"Arboviral diseases, Eastern equine encephalitis virus disease","m1_flag":"-","m2":"0","m2_flag":"-","m3_flag":"-","m4_flag":"-","location1":"INDIANA","sort_order":"20225200156","geocode":{"type":"Point","coordinates":[-86.15013,39.76691]}}
        ,{"states":"MICHIGAN","year":"2022","week":"52","label":"Arboviral diseases, Eastern equine encephalitis virus disease","m1_flag":"-","m2":"0","m2_flag":"-","m3_flag":"-","m4":"1","m4_flag":"-","location1":"MICHIGAN","sort_order":"20225200157","geocode":{"type":"Point","coordinates":[-84.55226,42.73194]}}
        ,{"states":"OHIO","year":"2022","week":"52","label":"Arboviral diseases, Eastern equine encephalitis virus disease","m1_flag":"-","m2":"0","m2_flag":"-","m3_flag":"-","m4_flag":"-","location1":"OHIO","sort_order":"20225200158","geocode":{"type":"Point","coordinates":[-83.00276,39.96199]}}
        ,{"states":"WISCONSIN","year":"2022","week":"52","label":"Arboviral diseases, Eastern equine encephalitis virus disease","m1_flag":"-","m2":"1","m2_flag":"-","m3":"1","m3_flag":"-","m4":"1","m4_flag":"-","location1":"WISCONSIN","sort_order":"20225200159","geocode":{"type":"Point","coordinates":[-89.38645,43.07313]}}
        ,{"states":"WEST NORTH CENTRAL","year":"2022","week":"52","label":"Arboviral diseases, Eastern equine encephalitis virus disease","m1_flag":"-","m2":"0","m2_flag":"-","m3_flag":"-","m4_flag":"-","location2":"WEST NORTH CENTRAL","sort_order":"20225200160"}
        ,{"states":"IOWA","year":"2022","week":"52","label":"Arboviral diseases, Eastern equine encephalitis virus disease","m1_flag":"-","m2":"0","m2_flag":"-","m3_flag":"-","m4_flag":"-","location1":"IOWA","sort_order":"20225200161","geocode":{"type":"Point","coordinates":[-93.61539,41.58981]}}
        ,{"states":"KANSAS","year":"2022","week":"52","label":"Arboviral diseases, Eastern equine encephalitis virus disease","m1_flag":"-","m2":"0","m2_flag":"-","m3_flag":"-","m4_flag":"-","location1":"KANSAS","sort_order":"20225200162","geocode":{"type":"Point","coordinates":[-95.67119,39.04928]}}
        ,{"states":"MINNESOTA","year":"2022","week":"52","label":"Arboviral diseases, Eastern equine encephalitis virus disease","m1_flag":"-","m2":"0","m2_flag":"-","m3_flag":"-","m4_flag":"-","location1":"MINNESOTA","sort_order":"20225200163","geocode":{"type":"Point","coordinates":[-93.09649,44.94339]}}
        ,{"states":"MISSOURI","year":"2022","week":"52","label":"Arboviral diseases, Eastern equine encephalitis virus disease","m1_flag":"-","m2":"0","m2_flag":"-","m3_flag":"-","m4_flag":"-","location1":"MISSOURI","sort_order":"20225200164","geocode":{"type":"Point","coordinates":[-92.17785,38.57751]}}
        ,{"states":"NEBRASKA","year":"2022","week":"52","label":"Arboviral diseases, Eastern equine encephalitis virus disease","m1_flag":"-","m2":"0","m2_flag":"-","m3_flag":"-","m4_flag":"-","location1":"NEBRASKA","sort_order":"20225200165","geocode":{"type":"Point","coordinates":[-96.70731,40.81362]}}
        ,{"states":"NORTH DAKOTA","year":"2022","week":"52","label":"Arboviral diseases, Eastern equine encephalitis virus disease","m1_flag":"-","m2":"0","m2_flag":"-","m3_flag":"-","m4_flag":"-","location1":"NORTH DAKOTA","sort_order":"20225200166","geocode":{"type":"Point","coordinates":[-100.77969,46.80536]}}
        ,{"states":"SOUTH DAKOTA","year":"2022","week":"52","label":"Arboviral diseases, Eastern equine encephalitis virus disease","m1_flag":"-","m2":"0","m2_flag":"-","m3_flag":"-","m4_flag":"-","location1":"SOUTH DAKOTA","sort_order":"20225200167","geocode":{"type":"Point","coordinates":[-100.34987,44.36917]}}
        ,{"states":"SOUTH ATLANTIC","year":"2022","week":"52","label":"Arboviral diseases, Eastern equine encephalitis virus disease","m1_flag":"-","m2":"0","m2_flag":"-","m3_flag":"-","m4":"3","m4_flag":"-","location2":"SOUTH ATLANTIC","sort_order":"20225200168"}
        ,{"states":"DELAWARE","year":"2022","week":"52","label":"Arboviral diseases, Eastern equine encephalitis virus disease","m1_flag":"-","m2":"0","m2_flag":"-","m3_flag":"-","m4_flag":"-","location1":"DELAWARE","sort_order":"20225200169","geocode":{"type":"Point","coordinates":[-75.52474,39.15803]}}
        ,{"states":"DISTRICT OF COLUMBIA","year":"2022","week":"52","label":"Arboviral diseases, Eastern equine encephalitis virus disease","m1_flag":"-","m2":"0","m2_flag":"-","m3_flag":"-","m4_flag":"-","location1":"DISTRICT OF COLUMBIA","sort_order":"20225200170"}
        ,{"states":"FLORIDA","year":"2022","week":"52","label":"Arboviral diseases, Eastern equine encephalitis virus disease","m1_flag":"-","m2":"0","m2_flag":"-","m3_flag":"-","m4_flag":"-","location1":"FLORIDA","sort_order":"20225200171","geocode":{"type":"Point","coordinates":[-84.28065,30.43977]}}
        ,{"states":"GEORGIA","year":"2022","week":"52","label":"Arboviral diseases, Eastern equine encephalitis virus disease","m1_flag":"-","m2":"0","m2_flag":"-","m3_flag":"-","m4":"2","m4_flag":"-","location1":"GEORGIA","sort_order":"20225200172","geocode":{"type":"Point","coordinates":[-84.39111,33.74831]}}
        ,{"states":"MARYLAND","year":"2022","week":"52","label":"Arboviral diseases, Eastern equine encephalitis virus disease","m1_flag":"-","m2":"0","m2_flag":"-","m3_flag":"-","m4_flag":"-","location1":"MARYLAND","sort_order":"20225200173","geocode":{"type":"Point","coordinates":[-76.49015,38.97678]}}
        ,{"states":"NORTH CAROLINA","year":"2022","week":"52","label":"Arboviral diseases, Eastern equine encephalitis virus disease","m1_flag":"-","m2":"0","m2_flag":"-","m3_flag":"-","m4":"1","m4_flag":"-","location1":"NORTH CAROLINA","sort_order":"20225200174","geocode":{"type":"Point","coordinates":[-78.6427,35.78547]}}
        ,{"states":"SOUTH CAROLINA","year":"2022","week":"52","label":"Arboviral diseases, Eastern equine encephalitis virus disease","m1_flag":"-","m2":"0","m2_flag":"-","m3_flag":"-","m4_flag":"-","location1":"SOUTH CAROLINA","sort_order":"20225200175","geocode":{"type":"Point","coordinates":[-81.04537,33.99882]}}
        ,{"states":"VIRGINIA","year":"2022","week":"52","label":"Arboviral diseases, Eastern equine encephalitis virus disease","m1_flag":"-","m2":"0","m2_flag":"-","m3_flag":"-","m4_flag":"-","location1":"VIRGINIA","sort_order":"20225200176","geocode":{"type":"Point","coordinates":[-77.43367,37.54068]}}
        ,{"states":"WEST VIRGINIA","year":"2022","week":"52","label":"Arboviral diseases, Eastern equine encephalitis virus disease","m1_flag":"-","m2":"0","m2_flag":"-","m3_flag":"-","m4_flag":"-","location1":"WEST VIRGINIA","sort_order":"20225200177","geocode":{"type":"Point","coordinates":[-81.63896,38.35016]}}
        ,{"states":"EAST SOUTH CENTRAL","year":"2022","week":"52","label":"Arboviral diseases, Eastern equine encephalitis virus disease","m1_flag":"-","m2":"0","m2_flag":"-","m3_flag":"-","m4_flag":"-","location2":"EAST SOUTH CENTRAL","sort_order":"20225200178"}
        ,{"states":"ALABAMA","year":"2022","week":"52","label":"Arboviral diseases, Eastern equine encephalitis virus disease","m1_flag":"-","m2":"0","m2_flag":"-","m3_flag":"-","m4_flag":"-","location1":"ALABAMA","sort_order":"20225200179","geocode":{"type":"Point","coordinates":[-86.30006,32.38015]}}
        ,{"states":"KENTUCKY","year":"2022","week":"52","label":"Arboviral diseases, Eastern equine encephalitis virus disease","m1_flag":"-","m2":"0","m2_flag":"-","m3_flag":"-","m4_flag":"-","location1":"KENTUCKY","sort_order":"20225200180","geocode":{"type":"Point","coordinates":[-84.8787,38.19507]}}
        ,{"states":"MISSISSIPPI","year":"2022","week":"52","label":"Arboviral diseases, Eastern equine encephalitis virus disease","m1_flag":"-","m2":"0","m2_flag":"-","m3_flag":"-","m4_flag":"-","location1":"MISSISSIPPI","sort_order":"20225200181","geocode":{"type":"Point","coordinates":[-90.18045,32.29896]}}
        ,{"states":"TENNESSEE","year":"2022","week":"52","label":"Arboviral diseases, Eastern equine encephalitis virus disease","m1_flag":"-","m2":"0","m2_flag":"-","m3_flag":"-","m4_flag":"-","location1":"TENNESSEE","sort_order":"20225200182","geocode":{"type":"Point","coordinates":[-86.77817,36.16784]}}
        ,{"states":"WEST SOUTH CENTRAL","year":"2022","week":"52","label":"Arboviral diseases, Eastern equine encephalitis virus disease","m1_flag":"-","m2":"0","m2_flag":"-","m3_flag":"-","m4_flag":"-","location2":"WEST SOUTH CENTRAL","sort_order":"20225200183"}
        ,{"states":"ARKANSAS","year":"2022","week":"52","label":"Arboviral diseases, Eastern equine encephalitis virus disease","m1_flag":"-","m2":"0","m2_flag":"-","m3_flag":"-","m4_flag":"-","location1":"ARKANSAS","sort_order":"20225200184","geocode":{"type":"Point","coordinates":[-92.27486,34.7487]}}
        ,{"states":"LOUISIANA","year":"2022","week":"52","label":"Arboviral diseases, Eastern equine encephalitis virus disease","m1_flag":"-","m2":"0","m2_flag":"-","m3_flag":"-","m4_flag":"-","location1":"LOUISIANA","sort_order":"20225200185","geocode":{"type":"Point","coordinates":[-91.18665,30.44335]}}
        ,{"states":"OKLAHOMA","year":"2022","week":"52","label":"Arboviral diseases, Eastern equine encephalitis virus disease","m1_flag":"-","m2":"0","m2_flag":"-","m3_flag":"-","m4_flag":"-","location1":"OKLAHOMA","sort_order":"20225200186","geocode":{"type":"Point","coordinates":[-97.52107,35.47203]}}
        ,{"states":"TEXAS","year":"2022","week":"52","label":"Arboviral diseases, Eastern equine encephalitis virus disease","m1_flag":"-","m2":"0","m2_flag":"-","m3_flag":"-","m4_flag":"-","location1":"TEXAS","sort_order":"20225200187","geocode":{"type":"Point","coordinates":[-97.743,30.26759]}}
        ,{"states":"MOUNTAIN","year":"2022","week":"52","label":"Arboviral diseases, Eastern equine encephalitis virus disease","m1_flag":"-","m2":"0","m2_flag":"-","m3_flag":"-","m4_flag":"-","location2":"MOUNTAIN","sort_order":"20225200188"}
        ,{"states":"ARIZONA","year":"2022","week":"52","label":"Arboviral diseases, Eastern equine encephalitis virus disease","m1_flag":"-","m2":"0","m2_flag":"-","m3_flag":"-","m4_flag":"-","location1":"ARIZONA","sort_order":"20225200189","geocode":{"type":"Point","coordinates":[-112.07581,33.44825]}}
        ,{"states":"COLORADO","year":"2022","week":"52","label":"Arboviral diseases, Eastern equine encephalitis virus disease","m1_flag":"-","m2":"0","m2_flag":"-","m3_flag":"-","m4_flag":"-","location1":"COLORADO","sort_order":"20225200190","geocode":{"type":"Point","coordinates":[-104.99203,39.74001]}}
        ,{"states":"IDAHO","year":"2022","week":"52","label":"Arboviral diseases, Eastern equine encephalitis virus disease","m1_flag":"-","m2":"0","m2_flag":"-","m3_flag":"-","m4_flag":"-","location1":"IDAHO","sort_order":"20225200191","geocode":{"type":"Point","coordinates":[-116.19341,43.60764]}}
        ,{"states":"MONTANA","year":"2022","week":"52","label":"Arboviral diseases, Eastern equine encephalitis virus disease","m1_flag":"-","m2":"0","m2_flag":"-","m3_flag":"-","m4_flag":"-","location1":"MONTANA","sort_order":"20225200192","geocode":{"type":"Point","coordinates":[-112.02066,46.58976]}}
        ,{"states":"NEVADA","year":"2022","week":"52","label":"Arboviral diseases, Eastern equine encephalitis virus disease","m1_flag":"-","m2":"0","m2_flag":"-","m3_flag":"-","m4_flag":"-","location1":"NEVADA","sort_order":"20225200193","geocode":{"type":"Point","coordinates":[-119.76698,39.16505]}}
        ,{"states":"NEW MEXICO","year":"2022","week":"52","label":"Arboviral diseases, Eastern equine encephalitis virus disease","m1_flag":"-","m2":"0","m2_flag":"-","m3_flag":"-","m4_flag":"-","location1":"NEW MEXICO","sort_order":"20225200194","geocode":{"type":"Point","coordinates":[-105.93825,35.69177]}}
        ,{"states":"UTAH","year":"2022","week":"52","label":"Arboviral diseases, Eastern equine encephalitis virus disease","m1_flag":"-","m2":"0","m2_flag":"-","m3_flag":"-","m4_flag":"-","location1":"UTAH","sort_order":"20225200195","geocode":{"type":"Point","coordinates":[-111.88822,40.76031]}}
        ,{"states":"WYOMING","year":"2022","week":"52","label":"Arboviral diseases, Eastern equine encephalitis virus disease","m1_flag":"-","m2":"0","m2_flag":"-","m3_flag":"-","m4_flag":"-","location1":"WYOMING","sort_order":"20225200196","geocode":{"type":"Point","coordinates":[-104.82155,41.13481]}}
        ,{"states":"PACIFIC","year":"2022","week":"52","label":"Arboviral diseases, Eastern equine encephalitis virus disease","m1_flag":"-","m2":"0","m2_flag":"-","m3_flag":"-","m4_flag":"-","location2":"PACIFIC","sort_order":"20225200197"}
        ,{"states":"ALASKA","year":"2022","week":"52","label":"Arboviral diseases, Eastern equine encephalitis virus disease","m1_flag":"-","m2":"0","m2_flag":"-","m3_flag":"-","m4_flag":"-","location1":"ALASKA","sort_order":"20225200198","geocode":{"type":"Point","coordinates":[-134.40679,58.29973]}}
        ,{"states":"CALIFORNIA","year":"2022","week":"52","label":"Arboviral diseases, Eastern equine encephalitis virus disease","m1_flag":"-","m2":"0","m2_flag":"-","m3_flag":"-","m4_flag":"-","location1":"CALIFORNIA","sort_order":"20225200199","geocode":{"type":"Point","coordinates":[-121.49086,38.57944]}}
        ,{"states":"HAWAII","year":"2022","week":"52","label":"Arboviral diseases, Eastern equine encephalitis virus disease","m1_flag":"-","m2":"0","m2_flag":"-","m3_flag":"-","m4_flag":"-","location1":"HAWAII","sort_order":"20225200200","geocode":{"type":"Point","coordinates":[-157.85788,21.30493]}}
        ,{"states":"OREGON","year":"2022","week":"52","label":"Arboviral diseases, Eastern equine encephalitis virus disease","m1_flag":"-","m2":"0","m2_flag":"-","m3_flag":"-","m4_flag":"-","location1":"OREGON","sort_order":"20225200201","geocode":{"type":"Point","coordinates":[-123.04382,44.93326]}}
        ,{"states":"WASHINGTON","year":"2022","week":"52","label":"Arboviral diseases, Eastern equine encephalitis virus disease","m1_flag":"-","m2":"0","m2_flag":"-","m3_flag":"-","m4_flag":"-","location1":"WASHINGTON","sort_order":"20225200202","geocode":{"type":"Point","coordinates":[-122.89167,47.03956]}}
        ,{"states":"US TERRITORIES","year":"2022","week":"52","label":"Arboviral diseases, Eastern equine encephalitis virus disease","m1_flag":"-","m2":"0","m2_flag":"-","m3_flag":"-","m4_flag":"-","location2":"US TERRITORIES","sort_order":"20225200203"}
        ,{"states":"AMERICAN SAMOA","year":"2022","week":"52","label":"Arboviral diseases, Eastern equine encephalitis virus disease","m1_flag":"-","m2":"0","m2_flag":"-","m3_flag":"-","m4_flag":"-","location1":"AMERICAN SAMOA","sort_order":"20225200204"}
        ,{"states":"NORTHERN MARIANA ISLANDS","year":"2022","week":"52","label":"Arboviral diseases, Eastern equine encephalitis virus disease","m1_flag":"-","m2":"0","m2_flag":"-","m3_flag":"-","m4_flag":"-","location1":"NORTHERN MARIANA ISLANDS","sort_order":"20225200205"}
        ,{"states":"GUAM","year":"2022","week":"52","label":"Arboviral diseases, Eastern equine encephalitis virus disease","m1_flag":"-","m2":"0","m2_flag":"-","m3_flag":"-","m4_flag":"-","location1":"GUAM","sort_order":"20225200206"}
        ,{"states":"PUERTO RICO","year":"2022","week":"52","label":"Arboviral diseases, Eastern equine encephalitis virus disease","m1_flag":"-","m2":"0","m2_flag":"-","m3_flag":"-","m4_flag":"-","location1":"PUERTO RICO","sort_order":"20225200207","geocode":{"type":"Point","coordinates":[-66.10474,18.46633]}}
        ,{"states":"U.S. VIRGIN ISLANDS","year":"2022","week":"52","label":"Arboviral diseases, Eastern equine encephalitis virus disease","m1_flag":"-","m2":"0","m2_flag":"-","m3_flag":"-","m4_flag":"-","location1":"U.S. VIRGIN ISLANDS","sort_order":"20225200208"}
        ,{"states":"NON-US RESIDENTS","year":"2022","week":"52","label":"Arboviral diseases, Eastern equine encephalitis virus disease","m1_flag":"-","m2":"0","m2_flag":"-","m3_flag":"-","m4_flag":"-","location2":"NON-US RESIDENTS","sort_order":"20225200209"}
        ,{"states":"TOTAL","year":"2022","week":"52","label":"Arboviral diseases, Eastern equine encephalitis virus disease","m1_flag":"-","m2":"1","m2_flag":"-","m3":"1","m3_flag":"-","m4":"5","m4_flag":"-","location2":"TOTAL","sort_order":"20225200210"}
        ,{"states":"US RESIDENTS","year":"2022","week":"52","label":"Arboviral diseases, Jamestown Canyon  virus disease","m1_flag":"-","m2":"1","m2_flag":"-","m3":"8","m3_flag":"-","m4":"32","m4_flag":"-","location2":"US RESIDENTS","sort_order":"20225200211"}
        ,{"states":"NEW ENGLAND","year":"2022","week":"52","label":"Arboviral diseases, Jamestown Canyon  virus disease","m1_flag":"-","m2":"1","m2_flag":"-","m3":"3","m3_flag":"-","m4":"7","m4_flag":"-","location2":"NEW ENGLAND","sort_order":"20225200212"}
        ,{"states":"CONNECTICUT","year":"2022","week":"52","label":"Arboviral diseases, Jamestown Canyon  virus disease","m1_flag":"-","m2":"0","m2_flag":"-","m3_flag":"-","m4_flag":"-","location1":"CONNECTICUT","sort_order":"20225200213","geocode":{"type":"Point","coordinates":[-72.67399,41.76376]}}
        ,{"states":"MAINE","year":"2022","week":"52","label":"Arboviral diseases, Jamestown Canyon  virus disease","m1_flag":"-","m2":"0","m2_flag":"-","m3_flag":"-","m4":"1","m4_flag":"-","location1":"MAINE","sort_order":"20225200214","geocode":{"type":"Point","coordinates":[-69.77631,44.31804]}}
        ,{"states":"MASSACHUSETTS","year":"2022","week":"52","label":"Arboviral diseases, Jamestown Canyon  virus disease","m1_flag":"-","m2":"1","m2_flag":"-","m3":"1","m3_flag":"-","m4_flag":"-","location1":"MASSACHUSETTS","sort_order":"20225200215","geocode":{"type":"Point","coordinates":[-71.05675,42.35866]}}
        ,{"states":"NEW HAMPSHIRE","year":"2022","week":"52","label":"Arboviral diseases, Jamestown Canyon  virus disease","m1_flag":"-","m2":"0","m2_flag":"-","m3_flag":"-","m4":"5","m4_flag":"-","location1":"NEW HAMPSHIRE","sort_order":"20225200216","geocode":{"type":"Point","coordinates":[-71.53661,43.20725]}}
        ,{"states":"RHODE ISLAND","year":"2022","week":"52","label":"Arboviral diseases, Jamestown Canyon  virus disease","m1_flag":"-","m2":"1","m2_flag":"-","m3":"2","m3_flag":"-","m4":"1","m4_flag":"-","location1":"RHODE ISLAND","sort_order":"20225200217","geocode":{"type":"Point","coordinates":[-71.41198,41.82388]}}
        ,{"states":"VERMONT","year":"2022","week":"52","label":"Arboviral diseases, Jamestown Canyon  virus disease","m1_flag":"-","m2":"0","m2_flag":"-","m3_flag":"-","m4_flag":"-","location1":"VERMONT","sort_order":"20225200218","geocode":{"type":"Point","coordinates":[-72.57627,44.26029]}}
        ,{"states":"MIDDLE ATLANTIC","year":"2022","week":"52","label":"Arboviral diseases, Jamestown Canyon  virus disease","m1_flag":"-","m2":"0","m2_flag":"-","m3_flag":"-","m4":"2","m4_flag":"-","location2":"MIDDLE ATLANTIC","sort_order":"20225200219"}
        ,{"states":"NEW JERSEY","year":"2022","week":"52","label":"Arboviral diseases, Jamestown Canyon  virus disease","m1_flag":"-","m2":"0","m2_flag":"-","m3_flag":"-","m4":"2","m4_flag":"-","location1":"NEW JERSEY","sort_order":"20225200220","geocode":{"type":"Point","coordinates":[-74.75942,40.21789]}}
        ,{"states":"NEW YORK","year":"2022","week":"52","label":"Arboviral diseases, Jamestown Canyon  virus disease","m1_flag":"-","m2":"0","m2_flag":"-","m3_flag":"-","m4_flag":"-","location1":"NEW YORK","sort_order":"20225200221","geocode":{"type":"Point","coordinates":[-73.75522,42.65155]}}
        ,{"states":"NEW YORK CITY","year":"2022","week":"52","label":"Arboviral diseases, Jamestown Canyon  virus disease","m1_flag":"-","m2":"0","m2_flag":"-","m3_flag":"-","m4_flag":"-","location1":"NEW YORK CITY","sort_order":"20225200222","geocode":{"type":"Point","coordinates":[-73.75522,42.65155]}}
        ,{"states":"PENNSYLVANIA","year":"2022","week":"52","label":"Arboviral diseases, Jamestown Canyon  virus disease","m1_flag":"-","m2":"0","m2_flag":"-","m3_flag":"-","m4_flag":"-","location1":"PENNSYLVANIA","sort_order":"20225200223","geocode":{"type":"Point","coordinates":[-76.88224,40.25986]}}
        ,{"states":"EAST NORTH CENTRAL","year":"2022","week":"52","label":"Arboviral diseases, Jamestown Canyon  virus disease","m1_flag":"-","m2":"1","m2_flag":"-","m3":"4","m3_flag":"-","m4":"17","m4_flag":"-","location2":"EAST NORTH CENTRAL","sort_order":"20225200224"}
        ,{"states":"ILLINOIS","year":"2022","week":"52","label":"Arboviral diseases, Jamestown Canyon  virus disease","m1_flag":"-","m2":"0","m2_flag":"-","m3_flag":"-","m4_flag":"-","location1":"ILLINOIS","sort_order":"20225200225","geocode":{"type":"Point","coordinates":[-89.64361,39.8013]}}
        ,{"states":"INDIANA","year":"2022","week":"52","label":"Arboviral diseases, Jamestown Canyon  virus disease","m1_flag":"-","m2":"0","m2_flag":"-","m3_flag":"-","m4":"1","m4_flag":"-","location1":"INDIANA","sort_order":"20225200226","geocode":{"type":"Point","coordinates":[-86.15013,39.76691]}}
        ,{"states":"MICHIGAN","year":"2022","week":"52","label":"Arboviral diseases, Jamestown Canyon  virus disease","m1_flag":"-","m2":"0","m2_flag":"-","m3_flag":"-","m4":"6","m4_flag":"-","location1":"MICHIGAN","sort_order":"20225200227","geocode":{"type":"Point","coordinates":[-84.55226,42.73194]}}
        ,{"states":"OHIO","year":"2022","week":"52","label":"Arboviral diseases, Jamestown Canyon  virus disease","m1_flag":"-","m2":"0","m2_flag":"-","m3_flag":"-","m4_flag":"-","location1":"OHIO","sort_order":"20225200228","geocode":{"type":"Point","coordinates":[-83.00276,39.96199]}}
        ,{"states":"WISCONSIN","year":"2022","week":"52","label":"Arboviral diseases, Jamestown Canyon  virus disease","m1_flag":"-","m2":"1","m2_flag":"-","m3":"4","m3_flag":"-","m4":"10","m4_flag":"-","location1":"WISCONSIN","sort_order":"20225200229","geocode":{"type":"Point","coordinates":[-89.38645,43.07313]}}
        ,{"states":"WEST NORTH CENTRAL","year":"2022","week":"52","label":"Arboviral diseases, Jamestown Canyon  virus disease","m1_flag":"-","m2":"1","m2_flag":"-","m3":"1","m3_flag":"-","m4":"6","m4_flag":"-","location2":"WEST NORTH CENTRAL","sort_order":"20225200230"}
        ,{"states":"IOWA","year":"2022","week":"52","label":"Arboviral diseases, Jamestown Canyon  virus disease","m1_flag":"-","m2":"0","m2_flag":"-","m3_flag":"-","m4_flag":"-","location1":"IOWA","sort_order":"20225200231","geocode":{"type":"Point","coordinates":[-93.61539,41.58981]}}
        ,{"states":"KANSAS","year":"2022","week":"52","label":"Arboviral diseases, Jamestown Canyon  virus disease","m1_flag":"-","m2":"0","m2_flag":"-","m3_flag":"-","m4_flag":"-","location1":"KANSAS","sort_order":"20225200232","geocode":{"type":"Point","coordinates":[-95.67119,39.04928]}}
        ,{"states":"MINNESOTA","year":"2022","week":"52","label":"Arboviral diseases, Jamestown Canyon  virus disease","m1_flag":"-","m2":"1","m2_flag":"-","m3":"1","m3_flag":"-","m4":"6","m4_flag":"-","location1":"MINNESOTA","sort_order":"20225200233","geocode":{"type":"Point","coordinates":[-93.09649,44.94339]}}
        ,{"states":"MISSOURI","year":"2022","week":"52","label":"Arboviral diseases, Jamestown Canyon  virus disease","m1_flag":"-","m2":"0","m2_flag":"-","m3_flag":"-","m4_flag":"-","location1":"MISSOURI","sort_order":"20225200234","geocode":{"type":"Point","coordinates":[-92.17785,38.57751]}}
        ,{"states":"NEBRASKA","year":"2022","week":"52","label":"Arboviral diseases, Jamestown Canyon  virus disease","m1_flag":"-","m2":"0","m2_flag":"-","m3_flag":"-","m4_flag":"-","location1":"NEBRASKA","sort_order":"20225200235","geocode":{"type":"Point","coordinates":[-96.70731,40.81362]}}
        ,{"states":"NORTH DAKOTA","year":"2022","week":"52","label":"Arboviral diseases, Jamestown Canyon  virus disease","m1_flag":"-","m2":"0","m2_flag":"-","m3_flag":"-","m4_flag":"-","location1":"NORTH DAKOTA","sort_order":"20225200236","geocode":{"type":"Point","coordinates":[-100.77969,46.80536]}}
        ,{"states":"SOUTH DAKOTA","year":"2022","week":"52","label":"Arboviral diseases, Jamestown Canyon  virus disease","m1_flag":"-","m2":"0","m2_flag":"-","m3_flag":"-","m4_flag":"-","location1":"SOUTH DAKOTA","sort_order":"20225200237","geocode":{"type":"Point","coordinates":[-100.34987,44.36917]}}
        ,{"states":"SOUTH ATLANTIC","year":"2022","week":"52","label":"Arboviral diseases, Jamestown Canyon  virus disease","m1_flag":"-","m2":"0","m2_flag":"-","m3_flag":"-","m4_flag":"-","location2":"SOUTH ATLANTIC","sort_order":"20225200238"}
        ,{"states":"DELAWARE","year":"2022","week":"52","label":"Arboviral diseases, Jamestown Canyon  virus disease","m1_flag":"-","m2":"0","m2_flag":"-","m3_flag":"-","m4_flag":"-","location1":"DELAWARE","sort_order":"20225200239","geocode":{"type":"Point","coordinates":[-75.52474,39.15803]}}
        ,{"states":"DISTRICT OF COLUMBIA","year":"2022","week":"52","label":"Arboviral diseases, Jamestown Canyon  virus disease","m1_flag":"-","m2":"0","m2_flag":"-","m3_flag":"-","m4_flag":"-","location1":"DISTRICT OF COLUMBIA","sort_order":"20225200240"}
        ,{"states":"FLORIDA","year":"2022","week":"52","label":"Arboviral diseases, Jamestown Canyon  virus disease","m1_flag":"-","m2":"0","m2_flag":"-","m3_flag":"-","m4_flag":"-","location1":"FLORIDA","sort_order":"20225200241","geocode":{"type":"Point","coordinates":[-84.28065,30.43977]}}
        ,{"states":"GEORGIA","year":"2022","week":"52","label":"Arboviral diseases, Jamestown Canyon  virus disease","m1_flag":"-","m2":"0","m2_flag":"-","m3_flag":"-","m4_flag":"-","location1":"GEORGIA","sort_order":"20225200242","geocode":{"type":"Point","coordinates":[-84.39111,33.74831]}}
        ,{"states":"MARYLAND","year":"2022","week":"52","label":"Arboviral diseases, Jamestown Canyon  virus disease","m1_flag":"-","m2":"0","m2_flag":"-","m3_flag":"-","m4_flag":"-","location1":"MARYLAND","sort_order":"20225200243","geocode":{"type":"Point","coordinates":[-76.49015,38.97678]}}
        ,{"states":"NORTH CAROLINA","year":"2022","week":"52","label":"Arboviral diseases, Jamestown Canyon  virus disease","m1_flag":"-","m2":"0","m2_flag":"-","m3_flag":"-","m4_flag":"-","location1":"NORTH CAROLINA","sort_order":"20225200244","geocode":{"type":"Point","coordinates":[-78.6427,35.78547]}}
        ,{"states":"SOUTH CAROLINA","year":"2022","week":"52","label":"Arboviral diseases, Jamestown Canyon  virus disease","m1_flag":"-","m2":"0","m2_flag":"-","m3_flag":"-","m4_flag":"-","location1":"SOUTH CAROLINA","sort_order":"20225200245","geocode":{"type":"Point","coordinates":[-81.04537,33.99882]}}
        ,{"states":"VIRGINIA","year":"2022","week":"52","label":"Arboviral diseases, Jamestown Canyon  virus disease","m1_flag":"-","m2":"0","m2_flag":"-","m3_flag":"-","m4_flag":"-","location1":"VIRGINIA","sort_order":"20225200246","geocode":{"type":"Point","coordinates":[-77.43367,37.54068]}}
        ,{"states":"WEST VIRGINIA","year":"2022","week":"52","label":"Arboviral diseases, Jamestown Canyon  virus disease","m1_flag":"-","m2":"0","m2_flag":"-","m3_flag":"-","m4_flag":"-","location1":"WEST VIRGINIA","sort_order":"20225200247","geocode":{"type":"Point","coordinates":[-81.63896,38.35016]}}
        ,{"states":"EAST SOUTH CENTRAL","year":"2022","week":"52","label":"Arboviral diseases, Jamestown Canyon  virus disease","m1_flag":"-","m2":"0","m2_flag":"-","m3_flag":"-","m4_flag":"-","location2":"EAST SOUTH CENTRAL","sort_order":"20225200248"}
        ,{"states":"ALABAMA","year":"2022","week":"52","label":"Arboviral diseases, Jamestown Canyon  virus disease","m1_flag":"-","m2":"0","m2_flag":"-","m3_flag":"-","m4_flag":"-","location1":"ALABAMA","sort_order":"20225200249","geocode":{"type":"Point","coordinates":[-86.30006,32.38015]}}
        ,{"states":"KENTUCKY","year":"2022","week":"52","label":"Arboviral diseases, Jamestown Canyon  virus disease","m1_flag":"-","m2":"0","m2_flag":"-","m3_flag":"-","m4_flag":"-","location1":"KENTUCKY","sort_order":"20225200250","geocode":{"type":"Point","coordinates":[-84.8787,38.19507]}}
        ,{"states":"MISSISSIPPI","year":"2022","week":"52","label":"Arboviral diseases, Jamestown Canyon  virus disease","m1_flag":"-","m2":"0","m2_flag":"-","m3_flag":"-","m4_flag":"-","location1":"MISSISSIPPI","sort_order":"20225200251","geocode":{"type":"Point","coordinates":[-90.18045,32.29896]}}
        ,{"states":"TENNESSEE","year":"2022","week":"52","label":"Arboviral diseases, Jamestown Canyon  virus disease","m1_flag":"-","m2":"0","m2_flag":"-","m3_flag":"-","m4_flag":"-","location1":"TENNESSEE","sort_order":"20225200252","geocode":{"type":"Point","coordinates":[-86.77817,36.16784]}}
        ,{"states":"WEST SOUTH CENTRAL","year":"2022","week":"52","label":"Arboviral diseases, Jamestown Canyon  virus disease","m1_flag":"-","m2":"0","m2_flag":"-","m3_flag":"-","m4_flag":"-","location2":"WEST SOUTH CENTRAL","sort_order":"20225200253"}
        ,{"states":"ARKANSAS","year":"2022","week":"52","label":"Arboviral diseases, Jamestown Canyon  virus disease","m1_flag":"-","m2":"0","m2_flag":"-","m3_flag":"-","m4_flag":"-","location1":"ARKANSAS","sort_order":"20225200254","geocode":{"type":"Point","coordinates":[-92.27486,34.7487]}}
        ,{"states":"LOUISIANA","year":"2022","week":"52","label":"Arboviral diseases, Jamestown Canyon  virus disease","m1_flag":"-","m2":"0","m2_flag":"-","m3_flag":"-","m4_flag":"-","location1":"LOUISIANA","sort_order":"20225200255","geocode":{"type":"Point","coordinates":[-91.18665,30.44335]}}
        ,{"states":"OKLAHOMA","year":"2022","week":"52","label":"Arboviral diseases, Jamestown Canyon  virus disease","m1_flag":"-","m2":"0","m2_flag":"-","m3_flag":"-","m4_flag":"-","location1":"OKLAHOMA","sort_order":"20225200256","geocode":{"type":"Point","coordinates":[-97.52107,35.47203]}}
        ,{"states":"TEXAS","year":"2022","week":"52","label":"Arboviral diseases, Jamestown Canyon  virus disease","m1_flag":"-","m2":"0","m2_flag":"-","m3_flag":"-","m4_flag":"-","location1":"TEXAS","sort_order":"20225200257","geocode":{"type":"Point","coordinates":[-97.743,30.26759]}}
        ,{"states":"MOUNTAIN","year":"2022","week":"52","label":"Arboviral diseases, Jamestown Canyon  virus disease","m1_flag":"-","m2":"0","m2_flag":"-","m3_flag":"-","m4_flag":"-","location2":"MOUNTAIN","sort_order":"20225200258"}
        ,{"states":"ARIZONA","year":"2022","week":"52","label":"Arboviral diseases, Jamestown Canyon  virus disease","m1_flag":"-","m2":"0","m2_flag":"-","m3_flag":"-","m4_flag":"-","location1":"ARIZONA","sort_order":"20225200259","geocode":{"type":"Point","coordinates":[-112.07581,33.44825]}}
        ,{"states":"COLORADO","year":"2022","week":"52","label":"Arboviral diseases, Jamestown Canyon  virus disease","m1_flag":"-","m2":"0","m2_flag":"-","m3_flag":"-","m4_flag":"-","location1":"COLORADO","sort_order":"20225200260","geocode":{"type":"Point","coordinates":[-104.99203,39.74001]}}
        ,{"states":"IDAHO","year":"2022","week":"52","label":"Arboviral diseases, Jamestown Canyon  virus disease","m1_flag":"-","m2":"0","m2_flag":"-","m3_flag":"-","m4_flag":"-","location1":"IDAHO","sort_order":"20225200261","geocode":{"type":"Point","coordinates":[-116.19341,43.60764]}}
        ,{"states":"MONTANA","year":"2022","week":"52","label":"Arboviral diseases, Jamestown Canyon  virus disease","m1_flag":"-","m2":"0","m2_flag":"-","m3_flag":"-","m4_flag":"-","location1":"MONTANA","sort_order":"20225200262","geocode":{"type":"Point","coordinates":[-112.02066,46.58976]}}
        ,{"states":"NEVADA","year":"2022","week":"52","label":"Arboviral diseases, Jamestown Canyon  virus disease","m1_flag":"-","m2":"0","m2_flag":"-","m3_flag":"-","m4_flag":"-","location1":"NEVADA","sort_order":"20225200263","geocode":{"type":"Point","coordinates":[-119.76698,39.16505]}}
        ,{"states":"NEW MEXICO","year":"2022","week":"52","label":"Arboviral diseases, Jamestown Canyon  virus disease","m1_flag":"-","m2":"0","m2_flag":"-","m3_flag":"-","m4_flag":"-","location1":"NEW MEXICO","sort_order":"20225200264","geocode":{"type":"Point","coordinates":[-105.93825,35.69177]}}
        ,{"states":"UTAH","year":"2022","week":"52","label":"Arboviral diseases, Jamestown Canyon  virus disease","m1_flag":"-","m2":"0","m2_flag":"-","m3_flag":"-","m4_flag":"-","location1":"UTAH","sort_order":"20225200265","geocode":{"type":"Point","coordinates":[-111.88822,40.76031]}}
        ,{"states":"WYOMING","year":"2022","week":"52","label":"Arboviral diseases, Jamestown Canyon  virus disease","m1_flag":"-","m2":"0","m2_flag":"-","m3_flag":"-","m4_flag":"-","location1":"WYOMING","sort_order":"20225200266","geocode":{"type":"Point","coordinates":[-104.82155,41.13481]}}
        ,{"states":"PACIFIC","year":"2022","week":"52","label":"Arboviral diseases, Jamestown Canyon  virus disease","m1_flag":"-","m2":"0","m2_flag":"-","m3_flag":"-","m4_flag":"-","location2":"PACIFIC","sort_order":"20225200267"}
        ,{"states":"ALASKA","year":"2022","week":"52","label":"Arboviral diseases, Jamestown Canyon  virus disease","m1_flag":"-","m2":"0","m2_flag":"-","m3_flag":"-","m4_flag":"-","location1":"ALASKA","sort_order":"20225200268","geocode":{"type":"Point","coordinates":[-134.40679,58.29973]}}
        ,{"states":"CALIFORNIA","year":"2022","week":"52","label":"Arboviral diseases, Jamestown Canyon  virus disease","m1_flag":"-","m2":"0","m2_flag":"-","m3_flag":"-","m4_flag":"-","location1":"CALIFORNIA","sort_order":"20225200269","geocode":{"type":"Point","coordinates":[-121.49086,38.57944]}}
        ,{"states":"HAWAII","year":"2022","week":"52","label":"Arboviral diseases, Jamestown Canyon  virus disease","m1_flag":"-","m2":"0","m2_flag":"-","m3_flag":"-","m4_flag":"-","location1":"HAWAII","sort_order":"20225200270","geocode":{"type":"Point","coordinates":[-157.85788,21.30493]}}
        ,{"states":"OREGON","year":"2022","week":"52","label":"Arboviral diseases, Jamestown Canyon  virus disease","m1_flag":"-","m2":"0","m2_flag":"-","m3_flag":"-","m4_flag":"-","location1":"OREGON","sort_order":"20225200271","geocode":{"type":"Point","coordinates":[-123.04382,44.93326]}}
        ,{"states":"WASHINGTON","year":"2022","week":"52","label":"Arboviral diseases, Jamestown Canyon  virus disease","m1_flag":"-","m2":"0","m2_flag":"-","m3_flag":"-","m4_flag":"-","location1":"WASHINGTON","sort_order":"20225200272","geocode":{"type":"Point","coordinates":[-122.89167,47.03956]}}
        ,{"states":"US TERRITORIES","year":"2022","week":"52","label":"Arboviral diseases, Jamestown Canyon  virus disease","m1_flag":"-","m2":"0","m2_flag":"-","m3_flag":"-","m4_flag":"-","location2":"US TERRITORIES","sort_order":"20225200273"}
        ,{"states":"AMERICAN SAMOA","year":"2022","week":"52","label":"Arboviral diseases, Jamestown Canyon  virus disease","m1_flag":"-","m2":"0","m2_flag":"-","m3_flag":"-","m4_flag":"-","location1":"AMERICAN SAMOA","sort_order":"20225200274"}
        ,{"states":"NORTHERN MARIANA ISLANDS","year":"2022","week":"52","label":"Arboviral diseases, Jamestown Canyon  virus disease","m1_flag":"-","m2":"0","m2_flag":"-","m3_flag":"-","m4_flag":"-","location1":"NORTHERN MARIANA ISLANDS","sort_order":"20225200275"}
        ,{"states":"GUAM","year":"2022","week":"52","label":"Arboviral diseases, Jamestown Canyon  virus disease","m1_flag":"-","m2":"0","m2_flag":"-","m3_flag":"-","m4_flag":"-","location1":"GUAM","sort_order":"20225200276"}
        ,{"states":"PUERTO RICO","year":"2022","week":"52","label":"Arboviral diseases, Jamestown Canyon  virus disease","m1_flag":"-","m2":"0","m2_flag":"-","m3_flag":"-","m4_flag":"-","location1":"PUERTO RICO","sort_order":"20225200277","geocode":{"type":"Point","coordinates":[-66.10474,18.46633]}}
        ,{"states":"U.S. VIRGIN ISLANDS","year":"2022","week":"52","label":"Arboviral diseases, Jamestown Canyon  virus disease","m1_flag":"-","m2":"0","m2_flag":"-","m3_flag":"-","m4_flag":"-","location1":"U.S. VIRGIN ISLANDS","sort_order":"20225200278"}
        ,{"states":"NON-US RESIDENTS","year":"2022","week":"52","label":"Arboviral diseases, Jamestown Canyon  virus disease","m1_flag":"-","m2":"0","m2_flag":"-","m3_flag":"-","m4_flag":"-","location2":"NON-US RESIDENTS","sort_order":"20225200279"}
        ,{"states":"TOTAL","year":"2022","week":"52","label":"Arboviral diseases, Jamestown Canyon  virus disease","m1_flag":"-","m2":"1","m2_flag":"-","m3":"8","m3_flag":"-","m4":"32","m4_flag":"-","location2":"TOTAL","sort_order":"20225200280"}
        ,{"states":"US RESIDENTS","year":"2022","week":"52","label":"Arboviral diseases, La Crosse  virus disease","m1_flag":"-","m2":"4","m2_flag":"-","m3":"21","m3_flag":"-","m4":"40","m4_flag":"-","location2":"US RESIDENTS","sort_order":"20225200281"}
        ,{"states":"NEW ENGLAND","year":"2022","week":"52","label":"Arboviral diseases, La Crosse  virus disease","m1_flag":"-","m2":"0","m2_flag":"-","m3_flag":"-","m4_flag":"-","location2":"NEW ENGLAND","sort_order":"20225200282"}
        ,{"states":"CONNECTICUT","year":"2022","week":"52","label":"Arboviral diseases, La Crosse  virus disease","m1_flag":"-","m2":"0","m2_flag":"-","m3_flag":"-","m4_flag":"-","location1":"CONNECTICUT","sort_order":"20225200283","geocode":{"type":"Point","coordinates":[-72.67399,41.76376]}}
        ,{"states":"MAINE","year":"2022","week":"52","label":"Arboviral diseases, La Crosse  virus disease","m1_flag":"-","m2":"0","m2_flag":"-","m3_flag":"-","m4_flag":"-","location1":"MAINE","sort_order":"20225200284","geocode":{"type":"Point","coordinates":[-69.77631,44.31804]}}
        ,{"states":"MASSACHUSETTS","year":"2022","week":"52","label":"Arboviral diseases, La Crosse  virus disease","m1_flag":"-","m2":"0","m2_flag":"-","m3_flag":"-","m4_flag":"-","location1":"MASSACHUSETTS","sort_order":"20225200285","geocode":{"type":"Point","coordinates":[-71.05675,42.35866]}}
        ,{"states":"NEW HAMPSHIRE","year":"2022","week":"52","label":"Arboviral diseases, La Crosse  virus disease","m1_flag":"-","m2":"0","m2_flag":"-","m3_flag":"-","m4_flag":"-","location1":"NEW HAMPSHIRE","sort_order":"20225200286","geocode":{"type":"Point","coordinates":[-71.53661,43.20725]}}
        ,{"states":"RHODE ISLAND","year":"2022","week":"52","label":"Arboviral diseases, La Crosse  virus disease","m1_flag":"-","m2":"0","m2_flag":"-","m3_flag":"-","m4_flag":"-","location1":"RHODE ISLAND","sort_order":"20225200287","geocode":{"type":"Point","coordinates":[-71.41198,41.82388]}}
        ,{"states":"VERMONT","year":"2022","week":"52","label":"Arboviral diseases, La Crosse  virus disease","m1_flag":"-","m2":"0","m2_flag":"-","m3_flag":"-","m4_flag":"-","location1":"VERMONT","sort_order":"20225200288","geocode":{"type":"Point","coordinates":[-72.57627,44.26029]}}
        ,{"states":"MIDDLE ATLANTIC","year":"2022","week":"52","label":"Arboviral diseases, La Crosse  virus disease","m1_flag":"-","m2":"0","m2_flag":"-","m3_flag":"-","m4_flag":"-","location2":"MIDDLE ATLANTIC","sort_order":"20225200289"}
        ,{"states":"NEW JERSEY","year":"2022","week":"52","label":"Arboviral diseases, La Crosse  virus disease","m1_flag":"-","m2":"0","m2_flag":"-","m3_flag":"-","m4_flag":"-","location1":"NEW JERSEY","sort_order":"20225200290","geocode":{"type":"Point","coordinates":[-74.75942,40.21789]}}
        ,{"states":"NEW YORK","year":"2022","week":"52","label":"Arboviral diseases, La Crosse  virus disease","m1_flag":"-","m2":"0","m2_flag":"-","m3_flag":"-","m4_flag":"-","location1":"NEW YORK","sort_order":"20225200291","geocode":{"type":"Point","coordinates":[-73.75522,42.65155]}}
        ,{"states":"NEW YORK CITY","year":"2022","week":"52","label":"Arboviral diseases, La Crosse  virus disease","m1_flag":"-","m2":"0","m2_flag":"-","m3_flag":"-","m4_flag":"-","location1":"NEW YORK CITY","sort_order":"20225200292","geocode":{"type":"Point","coordinates":[-73.75522,42.65155]}}
        ,{"states":"PENNSYLVANIA","year":"2022","week":"52","label":"Arboviral diseases, La Crosse  virus disease","m1_flag":"-","m2":"0","m2_flag":"-","m3_flag":"-","m4_flag":"-","location1":"PENNSYLVANIA","sort_order":"20225200293","geocode":{"type":"Point","coordinates":[-76.88224,40.25986]}}
        ,{"states":"EAST NORTH CENTRAL","year":"2022","week":"52","label":"Arboviral diseases, La Crosse  virus disease","m1_flag":"-","m2":"4","m2_flag":"-","m3":"13","m3_flag":"-","m4":"23","m4_flag":"-","location2":"EAST NORTH CENTRAL","sort_order":"20225200294"}
        ,{"states":"ILLINOIS","year":"2022","week":"52","label":"Arboviral diseases, La Crosse  virus disease","m1_flag":"-","m2":"0","m2_flag":"-","m3_flag":"-","m4":"1","m4_flag":"-","location1":"ILLINOIS","sort_order":"20225200295","geocode":{"type":"Point","coordinates":[-89.64361,39.8013]}}
        ,{"states":"INDIANA","year":"2022","week":"52","label":"Arboviral diseases, La Crosse  virus disease","m1_flag":"-","m2":"0","m2_flag":"-","m3_flag":"-","m4":"1","m4_flag":"-","location1":"INDIANA","sort_order":"20225200296","geocode":{"type":"Point","coordinates":[-86.15013,39.76691]}}
        ,{"states":"MICHIGAN","year":"2022","week":"52","label":"Arboviral diseases, La Crosse  virus disease","m1_flag":"-","m2":"0","m2_flag":"-","m3_flag":"-","m4":"1","m4_flag":"-","location1":"MICHIGAN","sort_order":"20225200297","geocode":{"type":"Point","coordinates":[-84.55226,42.73194]}}
        ,{"states":"OHIO","year":"2022","week":"52","label":"Arboviral diseases, La Crosse  virus disease","m1_flag":"-","m2":"4","m2_flag":"-","m3":"13","m3_flag":"-","m4":"18","m4_flag":"-","location1":"OHIO","sort_order":"20225200298","geocode":{"type":"Point","coordinates":[-83.00276,39.96199]}}
        ,{"states":"WISCONSIN","year":"2022","week":"52","label":"Arboviral diseases, La Crosse  virus disease","m1_flag":"-","m2":"0","m2_flag":"-","m3_flag":"-","m4":"2","m4_flag":"-","location1":"WISCONSIN","sort_order":"20225200299","geocode":{"type":"Point","coordinates":[-89.38645,43.07313]}}
        ,{"states":"WEST NORTH CENTRAL","year":"2022","week":"52","label":"Arboviral diseases, La Crosse  virus disease","m1_flag":"-","m2":"1","m2_flag":"-","m3":"3","m3_flag":"-","m4_flag":"-","location2":"WEST NORTH CENTRAL","sort_order":"20225200300"}
        ,{"states":"IOWA","year":"2022","week":"52","label":"Arboviral diseases, La Crosse  virus disease","m1_flag":"-","m2":"0","m2_flag":"-","m3_flag":"-","m4_flag":"-","location1":"IOWA","sort_order":"20225200301","geocode":{"type":"Point","coordinates":[-93.61539,41.58981]}}
        ,{"states":"KANSAS","year":"2022","week":"52","label":"Arboviral diseases, La Crosse  virus disease","m1_flag":"-","m2":"0","m2_flag":"-","m3_flag":"-","m4_flag":"-","location1":"KANSAS","sort_order":"20225200302","geocode":{"type":"Point","coordinates":[-95.67119,39.04928]}}
        ,{"states":"MINNESOTA","year":"2022","week":"52","label":"Arboviral diseases, La Crosse  virus disease","m1_flag":"-","m2":"1","m2_flag":"-","m3":"3","m3_flag":"-","m4_flag":"-","location1":"MINNESOTA","sort_order":"20225200303","geocode":{"type":"Point","coordinates":[-93.09649,44.94339]}}
        ,{"states":"MISSOURI","year":"2022","week":"52","label":"Arboviral diseases, La Crosse  virus disease","m1_flag":"-","m2":"0","m2_flag":"-","m3_flag":"-","m4_flag":"-","location1":"MISSOURI","sort_order":"20225200304","geocode":{"type":"Point","coordinates":[-92.17785,38.57751]}}
        ,{"states":"NEBRASKA","year":"2022","week":"52","label":"Arboviral diseases, La Crosse  virus disease","m1_flag":"-","m2":"0","m2_flag":"-","m3_flag":"-","m4_flag":"-","location1":"NEBRASKA","sort_order":"20225200305","geocode":{"type":"Point","coordinates":[-96.70731,40.81362]}}
        ,{"states":"NORTH DAKOTA","year":"2022","week":"52","label":"Arboviral diseases, La Crosse  virus disease","m1_flag":"-","m2":"0","m2_flag":"-","m3_flag":"-","m4_flag":"-","location1":"NORTH DAKOTA","sort_order":"20225200306","geocode":{"type":"Point","coordinates":[-100.77969,46.80536]}}
        ,{"states":"SOUTH DAKOTA","year":"2022","week":"52","label":"Arboviral diseases, La Crosse  virus disease","m1_flag":"-","m2":"0","m2_flag":"-","m3_flag":"-","m4_flag":"-","location1":"SOUTH DAKOTA","sort_order":"20225200307","geocode":{"type":"Point","coordinates":[-100.34987,44.36917]}}
        ,{"states":"SOUTH ATLANTIC","year":"2022","week":"52","label":"Arboviral diseases, La Crosse  virus disease","m1_flag":"-","m2":"1","m2_flag":"-","m3":"3","m3_flag":"-","m4":"10","m4_flag":"-","location2":"SOUTH ATLANTIC","sort_order":"20225200308"}
        ,{"states":"DELAWARE","year":"2022","week":"52","label":"Arboviral diseases, La Crosse  virus disease","m1_flag":"-","m2":"0","m2_flag":"-","m3_flag":"-","m4_flag":"-","location1":"DELAWARE","sort_order":"20225200309","geocode":{"type":"Point","coordinates":[-75.52474,39.15803]}}
        ,{"states":"DISTRICT OF COLUMBIA","year":"2022","week":"52","label":"Arboviral diseases, La Crosse  virus disease","m1_flag":"-","m2":"0","m2_flag":"-","m3_flag":"-","m4_flag":"-","location1":"DISTRICT OF COLUMBIA","sort_order":"20225200310"}
        ,{"states":"FLORIDA","year":"2022","week":"52","label":"Arboviral diseases, La Crosse  virus disease","m1_flag":"-","m2":"0","m2_flag":"-","m3_flag":"-","m4_flag":"-","location1":"FLORIDA","sort_order":"20225200311","geocode":{"type":"Point","coordinates":[-84.28065,30.43977]}}
        ,{"states":"GEORGIA","year":"2022","week":"52","label":"Arboviral diseases, La Crosse  virus disease","m1_flag":"-","m2":"0","m2_flag":"-","m3_flag":"-","m4_flag":"-","location1":"GEORGIA","sort_order":"20225200312","geocode":{"type":"Point","coordinates":[-84.39111,33.74831]}}
        ,{"states":"MARYLAND","year":"2022","week":"52","label":"Arboviral diseases, La Crosse  virus disease","m1_flag":"-","m2":"0","m2_flag":"-","m3_flag":"-","m4_flag":"-","location1":"MARYLAND","sort_order":"20225200313","geocode":{"type":"Point","coordinates":[-76.49015,38.97678]}}
        ,{"states":"NORTH CAROLINA","year":"2022","week":"52","label":"Arboviral diseases, La Crosse  virus disease","m1_flag":"-","m2":"1","m2_flag":"-","m3":"2","m3_flag":"-","m4":"9","m4_flag":"-","location1":"NORTH CAROLINA","sort_order":"20225200314","geocode":{"type":"Point","coordinates":[-78.6427,35.78547]}}
        ,{"states":"SOUTH CAROLINA","year":"2022","week":"52","label":"Arboviral diseases, La Crosse  virus disease","m1_flag":"-","m2":"0","m2_flag":"-","m3_flag":"-","m4_flag":"-","location1":"SOUTH CAROLINA","sort_order":"20225200315","geocode":{"type":"Point","coordinates":[-81.04537,33.99882]}}
        ,{"states":"VIRGINIA","year":"2022","week":"52","label":"Arboviral diseases, La Crosse  virus disease","m1_flag":"-","m2":"0","m2_flag":"-","m3_flag":"-","m4_flag":"-","location1":"VIRGINIA","sort_order":"20225200316","geocode":{"type":"Point","coordinates":[-77.43367,37.54068]}}
        ,{"states":"WEST VIRGINIA","year":"2022","week":"52","label":"Arboviral diseases, La Crosse  virus disease","m1_flag":"-","m2":"1","m2_flag":"-","m3":"1","m3_flag":"-","m4":"1","m4_flag":"-","location1":"WEST VIRGINIA","sort_order":"20225200317","geocode":{"type":"Point","coordinates":[-81.63896,38.35016]}}
        ,{"states":"EAST SOUTH CENTRAL","year":"2022","week":"52","label":"Arboviral diseases, La Crosse  virus disease","m1_flag":"-","m2":"1","m2_flag":"-","m3":"2","m3_flag":"-","m4":"7","m4_flag":"-","location2":"EAST SOUTH CENTRAL","sort_order":"20225200318"}
        ,{"states":"ALABAMA","year":"2022","week":"52","label":"Arboviral diseases, La Crosse  virus disease","m1_flag":"-","m2":"0","m2_flag":"-","m3_flag":"-","m4_flag":"-","location1":"ALABAMA","sort_order":"20225200319","geocode":{"type":"Point","coordinates":[-86.30006,32.38015]}}
        ,{"states":"KENTUCKY","year":"2022","week":"52","label":"Arboviral diseases, La Crosse  virus disease","m1_flag":"-","m2":"0","m2_flag":"-","m3_flag":"-","m4_flag":"-","location1":"KENTUCKY","sort_order":"20225200320","geocode":{"type":"Point","coordinates":[-84.8787,38.19507]}}
        ,{"states":"MISSISSIPPI","year":"2022","week":"52","label":"Arboviral diseases, La Crosse  virus disease","m1_flag":"-","m2":"0","m2_flag":"-","m3_flag":"-","m4_flag":"-","location1":"MISSISSIPPI","sort_order":"20225200321","geocode":{"type":"Point","coordinates":[-90.18045,32.29896]}}
        ,{"states":"TENNESSEE","year":"2022","week":"52","label":"Arboviral diseases, La Crosse  virus disease","m1_flag":"-","m2":"1","m2_flag":"-","m3":"2","m3_flag":"-","m4":"7","m4_flag":"-","location1":"TENNESSEE","sort_order":"20225200322","geocode":{"type":"Point","coordinates":[-86.77817,36.16784]}}
        ,{"states":"WEST SOUTH CENTRAL","year":"2022","week":"52","label":"Arboviral diseases, La Crosse  virus disease","m1_flag":"-","m2":"0","m2_flag":"-","m3_flag":"-","m4_flag":"-","location2":"WEST SOUTH CENTRAL","sort_order":"20225200323"}
        ,{"states":"ARKANSAS","year":"2022","week":"52","label":"Arboviral diseases, La Crosse  virus disease","m1_flag":"-","m2":"0","m2_flag":"-","m3_flag":"-","m4_flag":"-","location1":"ARKANSAS","sort_order":"20225200324","geocode":{"type":"Point","coordinates":[-92.27486,34.7487]}}
        ,{"states":"LOUISIANA","year":"2022","week":"52","label":"Arboviral diseases, La Crosse  virus disease","m1_flag":"-","m2":"0","m2_flag":"-","m3_flag":"-","m4_flag":"-","location1":"LOUISIANA","sort_order":"20225200325","geocode":{"type":"Point","coordinates":[-91.18665,30.44335]}}
        ,{"states":"OKLAHOMA","year":"2022","week":"52","label":"Arboviral diseases, La Crosse  virus disease","m1_flag":"-","m2":"0","m2_flag":"-","m3_flag":"-","m4_flag":"-","location1":"OKLAHOMA","sort_order":"20225200326","geocode":{"type":"Point","coordinates":[-97.52107,35.47203]}}
        ,{"states":"TEXAS","year":"2022","week":"52","label":"Arboviral diseases, La Crosse  virus disease","m1_flag":"-","m2":"0","m2_flag":"-","m3_flag":"-","m4_flag":"-","location1":"TEXAS","sort_order":"20225200327","geocode":{"type":"Point","coordinates":[-97.743,30.26759]}}
        ,{"states":"MOUNTAIN","year":"2022","week":"52","label":"Arboviral diseases, La Crosse  virus disease","m1_flag":"-","m2":"0","m2_flag":"-","m3_flag":"-","m4_flag":"-","location2":"MOUNTAIN","sort_order":"20225200328"}
        ,{"states":"ARIZONA","year":"2022","week":"52","label":"Arboviral diseases, La Crosse  virus disease","m1_flag":"-","m2":"0","m2_flag":"-","m3_flag":"-","m4_flag":"-","location1":"ARIZONA","sort_order":"20225200329","geocode":{"type":"Point","coordinates":[-112.07581,33.44825]}}
        ,{"states":"COLORADO","year":"2022","week":"52","label":"Arboviral diseases, La Crosse  virus disease","m1_flag":"-","m2":"0","m2_flag":"-","m3_flag":"-","m4_flag":"-","location1":"COLORADO","sort_order":"20225200330","geocode":{"type":"Point","coordinates":[-104.99203,39.74001]}}
        ,{"states":"IDAHO","year":"2022","week":"52","label":"Arboviral diseases, La Crosse  virus disease","m1_flag":"-","m2":"0","m2_flag":"-","m3_flag":"-","m4_flag":"-","location1":"IDAHO","sort_order":"20225200331","geocode":{"type":"Point","coordinates":[-116.19341,43.60764]}}
        ,{"states":"MONTANA","year":"2022","week":"52","label":"Arboviral diseases, La Crosse  virus disease","m1_flag":"-","m2":"0","m2_flag":"-","m3_flag":"-","m4_flag":"-","location1":"MONTANA","sort_order":"20225200332","geocode":{"type":"Point","coordinates":[-112.02066,46.58976]}}
        ,{"states":"NEVADA","year":"2022","week":"52","label":"Arboviral diseases, La Crosse  virus disease","m1_flag":"-","m2":"0","m2_flag":"-","m3_flag":"-","m4_flag":"-","location1":"NEVADA","sort_order":"20225200333","geocode":{"type":"Point","coordinates":[-119.76698,39.16505]}}
        ,{"states":"NEW MEXICO","year":"2022","week":"52","label":"Arboviral diseases, La Crosse  virus disease","m1_flag":"-","m2":"0","m2_flag":"-","m3_flag":"-","m4_flag":"-","location1":"NEW MEXICO","sort_order":"20225200334","geocode":{"type":"Point","coordinates":[-105.93825,35.69177]}}
        ,{"states":"UTAH","year":"2022","week":"52","label":"Arboviral diseases, La Crosse  virus disease","m1_flag":"-","m2":"0","m2_flag":"-","m3_flag":"-","m4_flag":"-","location1":"UTAH","sort_order":"20225200335","geocode":{"type":"Point","coordinates":[-111.88822,40.76031]}}
        ,{"states":"WYOMING","year":"2022","week":"52","label":"Arboviral diseases, La Crosse  virus disease","m1_flag":"-","m2":"0","m2_flag":"-","m3_flag":"-","m4_flag":"-","location1":"WYOMING","sort_order":"20225200336","geocode":{"type":"Point","coordinates":[-104.82155,41.13481]}}
        ,{"states":"PACIFIC","year":"2022","week":"52","label":"Arboviral diseases, La Crosse  virus disease","m1_flag":"-","m2":"0","m2_flag":"-","m3_flag":"-","m4_flag":"-","location2":"PACIFIC","sort_order":"20225200337"}
        ,{"states":"ALASKA","year":"2022","week":"52","label":"Arboviral diseases, La Crosse  virus disease","m1_flag":"-","m2":"0","m2_flag":"-","m3_flag":"-","m4_flag":"-","location1":"ALASKA","sort_order":"20225200338","geocode":{"type":"Point","coordinates":[-134.40679,58.29973]}}
        ,{"states":"CALIFORNIA","year":"2022","week":"52","label":"Arboviral diseases, La Crosse  virus disease","m1_flag":"-","m2":"0","m2_flag":"-","m3_flag":"-","m4_flag":"-","location1":"CALIFORNIA","sort_order":"20225200339","geocode":{"type":"Point","coordinates":[-121.49086,38.57944]}}
        ,{"states":"HAWAII","year":"2022","week":"52","label":"Arboviral diseases, La Crosse  virus disease","m1_flag":"-","m2":"0","m2_flag":"-","m3_flag":"-","m4_flag":"-","location1":"HAWAII","sort_order":"20225200340","geocode":{"type":"Point","coordinates":[-157.85788,21.30493]}}
        ,{"states":"OREGON","year":"2022","week":"52","label":"Arboviral diseases, La Crosse  virus disease","m1_flag":"-","m2":"0","m2_flag":"-","m3_flag":"-","m4_flag":"-","location1":"OREGON","sort_order":"20225200341","geocode":{"type":"Point","coordinates":[-123.04382,44.93326]}}
        ,{"states":"WASHINGTON","year":"2022","week":"52","label":"Arboviral diseases, La Crosse  virus disease","m1_flag":"-","m2":"0","m2_flag":"-","m3_flag":"-","m4_flag":"-","location1":"WASHINGTON","sort_order":"20225200342","geocode":{"type":"Point","coordinates":[-122.89167,47.03956]}}
        ,{"states":"US TERRITORIES","year":"2022","week":"52","label":"Arboviral diseases, La Crosse  virus disease","m1_flag":"-","m2":"0","m2_flag":"-","m3_flag":"-","m4_flag":"-","location2":"US TERRITORIES","sort_order":"20225200343"}
        ,{"states":"AMERICAN SAMOA","year":"2022","week":"52","label":"Arboviral diseases, La Crosse  virus disease","m1_flag":"-","m2":"0","m2_flag":"-","m3_flag":"-","m4_flag":"-","location1":"AMERICAN SAMOA","sort_order":"20225200344"}
        ,{"states":"NORTHERN MARIANA ISLANDS","year":"2022","week":"52","label":"Arboviral diseases, La Crosse  virus disease","m1_flag":"-","m2":"0","m2_flag":"-","m3_flag":"-","m4_flag":"-","location1":"NORTHERN MARIANA ISLANDS","sort_order":"20225200345"}
        ,{"states":"GUAM","year":"2022","week":"52","label":"Arboviral diseases, La Crosse  virus disease","m1_flag":"-","m2":"0","m2_flag":"-","m3_flag":"-","m4_flag":"-","location1":"GUAM","sort_order":"20225200346"}
        ,{"states":"PUERTO RICO","year":"2022","week":"52","label":"Arboviral diseases, La Crosse  virus disease","m1_flag":"-","m2":"0","m2_flag":"-","m3_flag":"-","m4_flag":"-","location1":"PUERTO RICO","sort_order":"20225200347","geocode":{"type":"Point","coordinates":[-66.10474,18.46633]}}
        ,{"states":"U.S. VIRGIN ISLANDS","year":"2022","week":"52","label":"Arboviral diseases, La Crosse  virus disease","m1_flag":"-","m2":"0","m2_flag":"-","m3_flag":"-","m4_flag":"-","location1":"U.S. VIRGIN ISLANDS","sort_order":"20225200348"}
        ,{"states":"NON-US RESIDENTS","year":"2022","week":"52","label":"Arboviral diseases, La Crosse  virus disease","m1_flag":"-","m2":"0","m2_flag":"-","m3_flag":"-","m4_flag":"-","location2":"NON-US RESIDENTS","sort_order":"20225200349"}
        ,{"states":"TOTAL","year":"2022","week":"52","label":"Arboviral diseases, La Crosse  virus disease","m1_flag":"-","m2":"4","m2_flag":"-","m3":"21","m3_flag":"-","m4":"40","m4_flag":"-","location2":"TOTAL","sort_order":"20225200350"}
        ,{"states":"US RESIDENTS","year":"2022","week":"52","label":"Arboviral diseases, Powassan virus disease","m1_flag":"-","m2":"4","m2_flag":"-","m3":"36","m3_flag":"-","m4":"25","m4_flag":"-","location2":"US RESIDENTS","sort_order":"20225200351"}
        ,{"states":"NEW ENGLAND","year":"2022","week":"52","label":"Arboviral diseases, Powassan virus disease","m1_flag":"-","m2":"2","m2_flag":"-","m3":"13","m3_flag":"-","m4":"13","m4_flag":"-","location2":"NEW ENGLAND","sort_order":"20225200352"}
        ,{"states":"CONNECTICUT","year":"2022","week":"52","label":"Arboviral diseases, Powassan virus disease","m1_flag":"-","m2":"1","m2_flag":"-","m3":"4","m3_flag":"-","m4":"3","m4_flag":"-","location1":"CONNECTICUT","sort_order":"20225200353","geocode":{"type":"Point","coordinates":[-72.67399,41.76376]}}
