---
http_interactions:
- request:
    method: get
    uri: https://data.cdc.gov/resource/x9gk-5huc.json?week=3
    body:
      encoding: US-ASCII
      string: ''
    headers:
      User-Agent:
      - Faraday v2.7.2
      Accept-Encoding:
      - gzip;q=1.0,deflate;q=0.6,identity;q=0.3
      Accept:
      - "*/*"
  response:
    status:
      code: 200
      message: OK
    headers:
      Server:
      - nginx
      Date:
      - Mon, 30 Jan 2023 14:54:27 GMT
      Content-Type:
      - application/json;charset=utf-8
      Transfer-Encoding:
      - chunked
      Connection:
      - keep-alive
      Access-Control-Allow-Origin:
      - "*"
      Etag:
      - '"YWxwaGEuMzA3NTM3XzVfMTcxbGQtOE15WTVjcWdhZk1kWjBvdTZtWUREMTlZ---gzip0yzWd9IUMePyoa31IGkT-jNwVGM--gzip--gzip"'
      X-Soda2-Fields:
      - '["states","year","week","label","m1","m1_flag","m2","m2_flag","m3","m3_flag","m4","m4_flag","location1","location2","sort_order","geocode"]'
      X-Soda2-Types:
      - '["text","text","number","text","number","text","number","text","number","text","number","text","text","text","text","point"]'
      X-Soda2-Data-Out-Of-Date:
      - 'false'
      X-Soda2-Truth-Last-Modified:
      - Thu, 26 Jan 2023 17:04:58 GMT
      X-Soda2-Secondary-Last-Modified:
      - Thu, 26 Jan 2023 17:04:58 GMT
      Last-Modified:
      - Thu, 26 Jan 2023 17:04:58 GMT
      Vary:
      - Accept-Encoding
      Age:
      - '2'
      X-Socrata-Region:
      - aws-us-east-1-fedramp-prod
      Strict-Transport-Security:
      - max-age=31536000; includeSubDomains
      X-Socrata-Requestid:
      - 23e1f43f64959fc2f74d7770b0af8d27
    body:
      encoding: ASCII-8BIT
      string: |
        [{"states":"US RESIDENTS","year":"2022","week":"3","label":"Anthrax","m1_flag":"-","m2":"0","m2_flag":"-","m3_flag":"-","m4_flag":"-","location2":"US RESIDENTS","sort_order":"20220300001"}
        ,{"states":"NEW ENGLAND","year":"2022","week":"3","label":"Anthrax","m1_flag":"-","m2":"0","m2_flag":"-","m3_flag":"-","m4_flag":"-","location2":"NEW ENGLAND","sort_order":"20220300002"}
        ,{"states":"CONNECTICUT","year":"2022","week":"3","label":"Anthrax","m1_flag":"-","m2":"0","m2_flag":"-","m3_flag":"-","m4_flag":"-","location1":"CONNECTICUT","sort_order":"20220300003","geocode":{"type":"Point","coordinates":[-72.738288,41.575155]}}
        ,{"states":"MAINE","year":"2022","week":"3","label":"Anthrax","m1_flag":"-","m2":"0","m2_flag":"-","m3_flag":"-","m4_flag":"-","location1":"MAINE","sort_order":"20220300004","geocode":{"type":"Point","coordinates":[-69.06137,45.117911]}}
        ,{"states":"MASSACHUSETTS","year":"2022","week":"3","label":"Anthrax","m1_flag":"-","m2":"0","m2_flag":"-","m3_flag":"-","m4_flag":"-","location1":"MASSACHUSETTS","sort_order":"20220300005","geocode":{"type":"Point","coordinates":[-71.481104,42.151077]}}
        ,{"states":"NEW HAMPSHIRE","year":"2022","week":"3","label":"Anthrax","m1_flag":"-","m2":"0","m2_flag":"-","m3_flag":"-","m4_flag":"-","location1":"NEW HAMPSHIRE","sort_order":"20220300006","geocode":{"type":"Point","coordinates":[-71.57139,43.680429]}}
        ,{"states":"RHODE ISLAND","year":"2022","week":"3","label":"Anthrax","m1_flag":"-","m2":"0","m2_flag":"-","m3_flag":"-","m4_flag":"-","location1":"RHODE ISLAND","sort_order":"20220300007","geocode":{"type":"Point","coordinates":[-71.534637,41.572574]}}
        ,{"states":"VERMONT","year":"2022","week":"3","label":"Anthrax","m1_flag":"-","m2":"0","m2_flag":"-","m3_flag":"-","m4_flag":"-","location1":"VERMONT","sort_order":"20220300008","geocode":{"type":"Point","coordinates":[-72.662695,44.075252]}}
        ,{"states":"MIDDLE ATLANTIC","year":"2022","week":"3","label":"Anthrax","m1_flag":"-","m2":"0","m2_flag":"-","m3_flag":"-","m4_flag":"-","location2":"MIDDLE ATLANTIC","sort_order":"20220300009"}
        ,{"states":"NEW JERSEY","year":"2022","week":"3","label":"Anthrax","m1_flag":"-","m2":"0","m2_flag":"-","m3_flag":"-","m4_flag":"-","location1":"NEW JERSEY","sort_order":"20220300010","geocode":{"type":"Point","coordinates":[-74.655514,40.110253]}}
        ,{"states":"NEW YORK","year":"2022","week":"3","label":"Anthrax","m1_flag":"-","m2":"0","m2_flag":"-","m3_flag":"-","m4_flag":"-","location1":"NEW YORK","sort_order":"20220300011","geocode":{"type":"Point","coordinates":[-75.59655,42.921241]}}
        ,{"states":"NEW YORK CITY","year":"2022","week":"3","label":"Anthrax","m1_flag":"-","m2":"0","m2_flag":"-","m3_flag":"-","m4_flag":"-","location1":"NEW YORK CITY","sort_order":"20220300012"}
        ,{"states":"PENNSYLVANIA","year":"2022","week":"3","label":"Anthrax","m1_flag":"-","m2":"0","m2_flag":"-","m3_flag":"-","m4_flag":"-","location1":"PENNSYLVANIA","sort_order":"20220300013","geocode":{"type":"Point","coordinates":[-77.838886,40.896694]}}
        ,{"states":"EAST NORTH CENTRAL","year":"2022","week":"3","label":"Anthrax","m1_flag":"-","m2":"0","m2_flag":"-","m3_flag":"-","m4_flag":"-","location2":"EAST NORTH CENTRAL","sort_order":"20220300014"}
        ,{"states":"ILLINOIS","year":"2022","week":"3","label":"Anthrax","m1_flag":"-","m2":"0","m2_flag":"-","m3_flag":"-","m4_flag":"-","location1":"ILLINOIS","sort_order":"20220300015","geocode":{"type":"Point","coordinates":[-89.148632,40.124144]}}
        ,{"states":"INDIANA","year":"2022","week":"3","label":"Anthrax","m1_flag":"-","m2":"0","m2_flag":"-","m3_flag":"-","m4_flag":"-","location1":"INDIANA","sort_order":"20220300016","geocode":{"type":"Point","coordinates":[-86.2818,39.919991]}}
        ,{"states":"MICHIGAN","year":"2022","week":"3","label":"Anthrax","m1_flag":"-","m2":"0","m2_flag":"-","m3_flag":"-","m4_flag":"-","location1":"MICHIGAN","sort_order":"20220300017","geocode":{"type":"Point","coordinates":[-85.730977,44.874798]}}
        ,{"states":"OHIO","year":"2022","week":"3","label":"Anthrax","m1_flag":"-","m2":"0","m2_flag":"-","m3_flag":"-","m4_flag":"-","location1":"OHIO","sort_order":"20220300018","geocode":{"type":"Point","coordinates":[-82.70936,40.415534]}}
        ,{"states":"WISCONSIN","year":"2022","week":"3","label":"Anthrax","m1_flag":"-","m2":"0","m2_flag":"-","m3_flag":"-","m4_flag":"-","location1":"WISCONSIN","sort_order":"20220300019","geocode":{"type":"Point","coordinates":[-89.732969,44.639954]}}
        ,{"states":"WEST NORTH CENTRAL","year":"2022","week":"3","label":"Anthrax","m1_flag":"-","m2":"0","m2_flag":"-","m3_flag":"-","m4_flag":"-","location2":"WEST NORTH CENTRAL","sort_order":"20220300020"}
        ,{"states":"IOWA","year":"2022","week":"3","label":"Anthrax","m1_flag":"-","m2":"0","m2_flag":"-","m3_flag":"-","m4_flag":"-","location1":"IOWA","sort_order":"20220300021","geocode":{"type":"Point","coordinates":[-93.500061,42.074659]}}
        ,{"states":"KANSAS","year":"2022","week":"3","label":"Anthrax","m1_flag":"-","m2":"0","m2_flag":"-","m3_flag":"-","m4_flag":"-","location1":"KANSAS","sort_order":"20220300022","geocode":{"type":"Point","coordinates":[-98.38018,38.484729]}}
        ,{"states":"MINNESOTA","year":"2022","week":"3","label":"Anthrax","m1_flag":"-","m2":"0","m2_flag":"-","m3_flag":"-","m4_flag":"-","location1":"MINNESOTA","sort_order":"20220300023","geocode":{"type":"Point","coordinates":[-94.198308,46.349153]}}
        ,{"states":"MISSOURI","year":"2022","week":"3","label":"Anthrax","m1_flag":"-","m2":"0","m2_flag":"-","m3_flag":"-","m4_flag":"-","location1":"MISSOURI","sort_order":"20220300024","geocode":{"type":"Point","coordinates":[-92.477244,38.3675]}}
        ,{"states":"NEBRASKA","year":"2022","week":"3","label":"Anthrax","m1_flag":"-","m2":"0","m2_flag":"-","m3_flag":"-","m4_flag":"-","location1":"NEBRASKA","sort_order":"20220300025","geocode":{"type":"Point","coordinates":[-99.810595,41.527099]}}
        ,{"states":"NORTH DAKOTA","year":"2022","week":"3","label":"Anthrax","m1_flag":"-","m2":"0","m2_flag":"-","m3_flag":"-","m4_flag":"-","location1":"NORTH DAKOTA","sort_order":"20220300026","geocode":{"type":"Point","coordinates":[-100.46931,47.446305]}}
        ,{"states":"SOUTH DAKOTA","year":"2022","week":"3","label":"Anthrax","m1_flag":"-","m2":"0","m2_flag":"-","m3_flag":"-","m4_flag":"-","location1":"SOUTH DAKOTA","sort_order":"20220300027","geocode":{"type":"Point","coordinates":[-100.230491,44.43614]}}
        ,{"states":"SOUTH ATLANTIC","year":"2022","week":"3","label":"Anthrax","m1_flag":"-","m2":"0","m2_flag":"-","m3_flag":"-","m4_flag":"-","location2":"SOUTH ATLANTIC","sort_order":"20220300028"}
        ,{"states":"DELAWARE","year":"2022","week":"3","label":"Anthrax","m1_flag":"-","m2":"0","m2_flag":"-","m3_flag":"-","m4_flag":"-","location1":"DELAWARE","sort_order":"20220300029","geocode":{"type":"Point","coordinates":[-75.452394,38.994926]}}
        ,{"states":"DISTRICT OF COLUMBIA","year":"2022","week":"3","label":"Anthrax","m1_flag":"-","m2":"0","m2_flag":"-","m3_flag":"-","m4_flag":"-","location1":"DISTRICT OF COLUMBIA","sort_order":"20220300030","geocode":{"type":"Point","coordinates":[-77.016275,38.904785]}}
        ,{"states":"FLORIDA","year":"2022","week":"3","label":"Anthrax","m1_flag":"-","m2":"0","m2_flag":"-","m3_flag":"-","m4_flag":"-","location1":"FLORIDA","sort_order":"20220300031","geocode":{"type":"Point","coordinates":[-82.420978,28.260731]}}
        ,{"states":"GEORGIA","year":"2022","week":"3","label":"Anthrax","m1_flag":"-","m2":"0","m2_flag":"-","m3_flag":"-","m4_flag":"-","location1":"GEORGIA","sort_order":"20220300032","geocode":{"type":"Point","coordinates":[-83.426574,32.638481]}}
        ,{"states":"MARYLAND","year":"2022","week":"3","label":"Anthrax","m1_flag":"-","m2":"0","m2_flag":"-","m3_flag":"-","m4_flag":"-","location1":"MARYLAND","sort_order":"20220300033","geocode":{"type":"Point","coordinates":[-76.687282,38.946466]}}
        ,{"states":"NORTH CAROLINA","year":"2022","week":"3","label":"Anthrax","m1_flag":"-","m2":"0","m2_flag":"-","m3_flag":"-","m4_flag":"-","location1":"NORTH CAROLINA","sort_order":"20220300034","geocode":{"type":"Point","coordinates":[-79.130883,35.52603]}}
        ,{"states":"SOUTH CAROLINA","year":"2022","week":"3","label":"Anthrax","m1_flag":"-","m2":"0","m2_flag":"-","m3_flag":"-","m4_flag":"-","location1":"SOUTH CAROLINA","sort_order":"20220300035","geocode":{"type":"Point","coordinates":[-80.864614,33.878572]}}
        ,{"states":"VIRGINIA","year":"2022","week":"3","label":"Anthrax","m1_flag":"-","m2":"0","m2_flag":"-","m3_flag":"-","m4_flag":"-","location1":"VIRGINIA","sort_order":"20220300036","geocode":{"type":"Point","coordinates":[-78.666382,37.510861]}}
        ,{"states":"WEST VIRGINIA","year":"2022","week":"3","label":"Anthrax","m1_flag":"-","m2":"0","m2_flag":"-","m3_flag":"-","m4_flag":"-","location1":"WEST VIRGINIA","sort_order":"20220300037","geocode":{"type":"Point","coordinates":[-80.613729,38.642579]}}
        ,{"states":"EAST SOUTH CENTRAL","year":"2022","week":"3","label":"Anthrax","m1_flag":"-","m2":"0","m2_flag":"-","m3_flag":"-","m4_flag":"-","location2":"EAST SOUTH CENTRAL","sort_order":"20220300038"}
        ,{"states":"ALABAMA","year":"2022","week":"3","label":"Anthrax","m1_flag":"-","m2":"0","m2_flag":"-","m3_flag":"-","m4_flag":"-","location1":"ALABAMA","sort_order":"20220300039","geocode":{"type":"Point","coordinates":[-86.844516,32.756889]}}
        ,{"states":"KENTUCKY","year":"2022","week":"3","label":"Anthrax","m1_flag":"-","m2":"0","m2_flag":"-","m3_flag":"-","m4_flag":"-","location1":"KENTUCKY","sort_order":"20220300040","geocode":{"type":"Point","coordinates":[-85.290484,37.526683]}}
        ,{"states":"MISSISSIPPI","year":"2022","week":"3","label":"Anthrax","m1_flag":"-","m2":"0","m2_flag":"-","m3_flag":"-","m4_flag":"-","location1":"MISSISSIPPI","sort_order":"20220300041","geocode":{"type":"Point","coordinates":[-89.65344,32.713378]}}
        ,{"states":"TENNESSEE","year":"2022","week":"3","label":"Anthrax","m1_flag":"-","m2":"0","m2_flag":"-","m3_flag":"-","m4_flag":"-","location1":"TENNESSEE","sort_order":"20220300042","geocode":{"type":"Point","coordinates":[-86.343226,35.842998]}}
        ,{"states":"WEST SOUTH CENTRAL","year":"2022","week":"3","label":"Anthrax","m1_flag":"-","m2":"0","m2_flag":"-","m3_flag":"-","m4_flag":"-","location2":"WEST SOUTH CENTRAL","sort_order":"20220300043"}
        ,{"states":"ARKANSAS","year":"2022","week":"3","label":"Anthrax","m1_flag":"-","m2":"0","m2_flag":"-","m3_flag":"-","m4_flag":"-","location1":"ARKANSAS","sort_order":"20220300044","geocode":{"type":"Point","coordinates":[-92.439162,34.899825]}}
        ,{"states":"LOUISIANA","year":"2022","week":"3","label":"Anthrax","m1_flag":"-","m2":"0","m2_flag":"-","m3_flag":"-","m4_flag":"-","location1":"LOUISIANA","sort_order":"20220300045","geocode":{"type":"Point","coordinates":[-91.840238,30.921314]}}
        ,{"states":"OKLAHOMA","year":"2022","week":"3","label":"Anthrax","m1_flag":"-","m2":"0","m2_flag":"-","m3_flag":"-","m4_flag":"-","location1":"OKLAHOMA","sort_order":"20220300046","geocode":{"type":"Point","coordinates":[-97.508297,35.583449]}}
        ,{"states":"TEXAS","year":"2022","week":"3","label":"Anthrax","m1_flag":"-","m2":"0","m2_flag":"-","m3_flag":"-","m4_flag":"-","location1":"TEXAS","sort_order":"20220300047","geocode":{"type":"Point","coordinates":[-99.317341,31.447238]}}
        ,{"states":"MOUNTAIN","year":"2022","week":"3","label":"Anthrax","m1_flag":"-","m2":"0","m2_flag":"-","m3_flag":"-","m4_flag":"-","location2":"MOUNTAIN","sort_order":"20220300048"}
        ,{"states":"ARIZONA","year":"2022","week":"3","label":"Anthrax","m1_flag":"-","m2":"0","m2_flag":"-","m3_flag":"-","m4_flag":"-","location1":"ARIZONA","sort_order":"20220300049","geocode":{"type":"Point","coordinates":[-111.664616,34.293239]}}
        ,{"states":"COLORADO","year":"2022","week":"3","label":"Anthrax","m1_flag":"-","m2":"0","m2_flag":"-","m3_flag":"-","m4_flag":"-","location1":"COLORADO","sort_order":"20220300050","geocode":{"type":"Point","coordinates":[-105.547832,38.998552]}}
        ,{"states":"IDAHO","year":"2022","week":"3","label":"Anthrax","m1_flag":"-","m2":"0","m2_flag":"-","m3_flag":"-","m4_flag":"-","location1":"IDAHO","sort_order":"20220300051","geocode":{"type":"Point","coordinates":[-114.659366,44.389073]}}
        ,{"states":"MONTANA","year":"2022","week":"3","label":"Anthrax","m1_flag":"-","m2":"0","m2_flag":"-","m3_flag":"-","m4_flag":"-","location1":"MONTANA","sort_order":"20220300052","geocode":{"type":"Point","coordinates":[-109.645127,47.033521]}}
        ,{"states":"NEVADA","year":"2022","week":"3","label":"Anthrax","m1_flag":"-","m2":"0","m2_flag":"-","m3_flag":"-","m4_flag":"-","location1":"NEVADA","sort_order":"20220300053","geocode":{"type":"Point","coordinates":[-114.916992,39.283294]}}
        ,{"states":"NEW MEXICO","year":"2022","week":"3","label":"Anthrax","m1_flag":"-","m2":"0","m2_flag":"-","m3_flag":"-","m4_flag":"-","location1":"NEW MEXICO","sort_order":"20220300054","geocode":{"type":"Point","coordinates":[-106.108388,34.421369]}}
        ,{"states":"UTAH","year":"2022","week":"3","label":"Anthrax","m1_flag":"-","m2":"0","m2_flag":"-","m3_flag":"-","m4_flag":"-","location1":"UTAH","sort_order":"20220300055","geocode":{"type":"Point","coordinates":[-111.678222,39.323779]}}
        ,{"states":"WYOMING","year":"2022","week":"3","label":"Anthrax","m1_flag":"-","m2":"0","m2_flag":"-","m3_flag":"-","m4_flag":"-","location1":"WYOMING","sort_order":"20220300056","geocode":{"type":"Point","coordinates":[-107.55145,42.999627]}}
        ,{"states":"PACIFIC","year":"2022","week":"3","label":"Anthrax","m1_flag":"-","m2":"0","m2_flag":"-","m3_flag":"-","m4_flag":"-","location2":"PACIFIC","sort_order":"20220300057"}
        ,{"states":"ALASKA","year":"2022","week":"3","label":"Anthrax","m1_flag":"-","m2":"0","m2_flag":"-","m3_flag":"-","m4_flag":"-","location1":"ALASKA","sort_order":"20220300058","geocode":{"type":"Point","coordinates":[-151.631889,63.631126]}}
        ,{"states":"CALIFORNIA","year":"2022","week":"3","label":"Anthrax","m1_flag":"-","m2":"0","m2_flag":"-","m3_flag":"-","m4_flag":"-","location1":"CALIFORNIA","sort_order":"20220300059","geocode":{"type":"Point","coordinates":[-119.662127,37.211164]}}
        ,{"states":"HAWAII","year":"2022","week":"3","label":"Anthrax","m1_flag":"-","m2":"0","m2_flag":"-","m3_flag":"-","m4_flag":"-","location1":"HAWAII","sort_order":"20220300060","geocode":{"type":"Point","coordinates":[-157.854309,21.361013]}}
        ,{"states":"OREGON","year":"2022","week":"3","label":"Anthrax","m1_flag":"-","m2":"0","m2_flag":"-","m3_flag":"-","m4_flag":"-","location1":"OREGON","sort_order":"20220300061","geocode":{"type":"Point","coordinates":[-120.605279,43.940449]}}
        ,{"states":"WASHINGTON","year":"2022","week":"3","label":"Anthrax","m1_flag":"-","m2":"0","m2_flag":"-","m3_flag":"-","m4_flag":"-","location1":"WASHINGTON","sort_order":"20220300062","geocode":{"type":"Point","coordinates":[-120.592492,47.411715]}}
        ,{"states":"US TERRITORIES","year":"2022","week":"3","label":"Anthrax","m1_flag":"-","m2":"0","m2_flag":"-","m3_flag":"-","m4_flag":"-","location2":"US TERRITORIES","sort_order":"20220300063"}
        ,{"states":"AMERICAN SAMOA","year":"2022","week":"3","label":"Anthrax","m1_flag":"-","m2":"0","m2_flag":"-","m3_flag":"-","m4_flag":"-","location1":"AMERICAN SAMOA","sort_order":"20220300064"}
        ,{"states":"NORTHERN MARIANA ISLANDS","year":"2022","week":"3","label":"Anthrax","m1_flag":"-","m2":"0","m2_flag":"-","m3_flag":"-","m4_flag":"-","location1":"NORTHERN MARIANA ISLANDS","sort_order":"20220300065","geocode":{"type":"Point","coordinates":[145.725693,15.1834]}}
        ,{"states":"GUAM","year":"2022","week":"3","label":"Anthrax","m1_flag":"-","m2":"0","m2_flag":"-","m3_flag":"-","m4_flag":"-","location1":"GUAM","sort_order":"20220300066","geocode":{"type":"Point","coordinates":[144.653198,13.3532]}}
        ,{"states":"PUERTO RICO","year":"2022","week":"3","label":"Anthrax","m1_flag":"-","m2":"0","m2_flag":"-","m3_flag":"-","m4_flag":"-","location1":"PUERTO RICO","sort_order":"20220300067","geocode":{"type":"Point","coordinates":[-66.414655,18.215692]}}
        ,{"states":"U.S. VIRGIN ISLANDS","year":"2022","week":"3","label":"Anthrax","m1_flag":"-","m2":"0","m2_flag":"-","m3_flag":"-","m4_flag":"-","location1":"U.S. VIRGIN ISLANDS","sort_order":"20220300068"}
        ,{"states":"NON-US RESIDENTS","year":"2022","week":"3","label":"Anthrax","m1_flag":"-","m2":"0","m2_flag":"-","m3_flag":"-","m4_flag":"-","location2":"NON-US RESIDENTS","sort_order":"20220300069"}
        ,{"states":"TOTAL","year":"2022","week":"3","label":"Anthrax","m1_flag":"-","m2":"0","m2_flag":"-","m3_flag":"-","m4_flag":"-","location2":"TOTAL","sort_order":"20220300070"}
        ,{"states":"US RESIDENTS","year":"2022","week":"3","label":"Arboviral diseases, Chikungunya virus disease","m1_flag":"-","m2":"2","m2_flag":"-","m3_flag":"-","m4":"2","m4_flag":"-","location2":"US RESIDENTS","sort_order":"20220300071"}
        ,{"states":"NEW ENGLAND","year":"2022","week":"3","label":"Arboviral diseases, Chikungunya virus disease","m1_flag":"-","m2":"1","m2_flag":"-","m3_flag":"-","m4_flag":"-","location2":"NEW ENGLAND","sort_order":"20220300072"}
        ,{"states":"CONNECTICUT","year":"2022","week":"3","label":"Arboviral diseases, Chikungunya virus disease","m1_flag":"-","m2":"0","m2_flag":"-","m3_flag":"-","m4_flag":"-","location1":"CONNECTICUT","sort_order":"20220300073","geocode":{"type":"Point","coordinates":[-72.738288,41.575155]}}
        ,{"states":"MAINE","year":"2022","week":"3","label":"Arboviral diseases, Chikungunya virus disease","m1_flag":"-","m2":"0","m2_flag":"-","m3_flag":"-","m4_flag":"-","location1":"MAINE","sort_order":"20220300074","geocode":{"type":"Point","coordinates":[-69.06137,45.117911]}}
        ,{"states":"MASSACHUSETTS","year":"2022","week":"3","label":"Arboviral diseases, Chikungunya virus disease","m1_flag":"-","m2":"1","m2_flag":"-","m3_flag":"-","m4_flag":"-","location1":"MASSACHUSETTS","sort_order":"20220300075","geocode":{"type":"Point","coordinates":[-71.481104,42.151077]}}
        ,{"states":"NEW HAMPSHIRE","year":"2022","week":"3","label":"Arboviral diseases, Chikungunya virus disease","m1_flag":"-","m2":"0","m2_flag":"-","m3_flag":"-","m4_flag":"-","location1":"NEW HAMPSHIRE","sort_order":"20220300076","geocode":{"type":"Point","coordinates":[-71.57139,43.680429]}}
        ,{"states":"RHODE ISLAND","year":"2022","week":"3","label":"Arboviral diseases, Chikungunya virus disease","m1_flag":"-","m2":"0","m2_flag":"-","m3_flag":"-","m4_flag":"-","location1":"RHODE ISLAND","sort_order":"20220300077","geocode":{"type":"Point","coordinates":[-71.534637,41.572574]}}
        ,{"states":"VERMONT","year":"2022","week":"3","label":"Arboviral diseases, Chikungunya virus disease","m1_flag":"-","m2":"0","m2_flag":"-","m3_flag":"-","m4_flag":"-","location1":"VERMONT","sort_order":"20220300078","geocode":{"type":"Point","coordinates":[-72.662695,44.075252]}}
        ,{"states":"MIDDLE ATLANTIC","year":"2022","week":"3","label":"Arboviral diseases, Chikungunya virus disease","m1_flag":"-","m2":"1","m2_flag":"-","m3_flag":"-","m4_flag":"-","location2":"MIDDLE ATLANTIC","sort_order":"20220300079"}
        ,{"states":"NEW JERSEY","year":"2022","week":"3","label":"Arboviral diseases, Chikungunya virus disease","m1_flag":"-","m2":"1","m2_flag":"-","m3_flag":"-","m4_flag":"-","location1":"NEW JERSEY","sort_order":"20220300080","geocode":{"type":"Point","coordinates":[-74.655514,40.110253]}}
        ,{"states":"NEW YORK","year":"2022","week":"3","label":"Arboviral diseases, Chikungunya virus disease","m1_flag":"-","m2":"0","m2_flag":"-","m3_flag":"-","m4_flag":"-","location1":"NEW YORK","sort_order":"20220300081","geocode":{"type":"Point","coordinates":[-75.59655,42.921241]}}
        ,{"states":"NEW YORK CITY","year":"2022","week":"3","label":"Arboviral diseases, Chikungunya virus disease","m1_flag":"-","m2":"0","m2_flag":"-","m3_flag":"-","m4_flag":"-","location1":"NEW YORK CITY","sort_order":"20220300082"}
        ,{"states":"PENNSYLVANIA","year":"2022","week":"3","label":"Arboviral diseases, Chikungunya virus disease","m1_flag":"-","m2":"0","m2_flag":"-","m3_flag":"-","m4_flag":"-","location1":"PENNSYLVANIA","sort_order":"20220300083","geocode":{"type":"Point","coordinates":[-77.838886,40.896694]}}
        ,{"states":"EAST NORTH CENTRAL","year":"2022","week":"3","label":"Arboviral diseases, Chikungunya virus disease","m1_flag":"-","m2":"1","m2_flag":"-","m3_flag":"-","m4_flag":"-","location2":"EAST NORTH CENTRAL","sort_order":"20220300084"}
        ,{"states":"ILLINOIS","year":"2022","week":"3","label":"Arboviral diseases, Chikungunya virus disease","m1_flag":"-","m2":"1","m2_flag":"-","m3_flag":"-","m4_flag":"-","location1":"ILLINOIS","sort_order":"20220300085","geocode":{"type":"Point","coordinates":[-89.148632,40.124144]}}
        ,{"states":"INDIANA","year":"2022","week":"3","label":"Arboviral diseases, Chikungunya virus disease","m1_flag":"-","m2":"1","m2_flag":"-","m3_flag":"-","m4_flag":"-","location1":"INDIANA","sort_order":"20220300086","geocode":{"type":"Point","coordinates":[-86.2818,39.919991]}}
        ,{"states":"MICHIGAN","year":"2022","week":"3","label":"Arboviral diseases, Chikungunya virus disease","m1_flag":"-","m2":"0","m2_flag":"-","m3_flag":"-","m4_flag":"-","location1":"MICHIGAN","sort_order":"20220300087","geocode":{"type":"Point","coordinates":[-85.730977,44.874798]}}
        ,{"states":"OHIO","year":"2022","week":"3","label":"Arboviral diseases, Chikungunya virus disease","m1_flag":"-","m2":"0","m2_flag":"-","m3_flag":"-","m4_flag":"-","location1":"OHIO","sort_order":"20220300088","geocode":{"type":"Point","coordinates":[-82.70936,40.415534]}}
        ,{"states":"WISCONSIN","year":"2022","week":"3","label":"Arboviral diseases, Chikungunya virus disease","m1_flag":"-","m2":"0","m2_flag":"-","m3_flag":"-","m4_flag":"-","location1":"WISCONSIN","sort_order":"20220300089","geocode":{"type":"Point","coordinates":[-89.732969,44.639954]}}
        ,{"states":"WEST NORTH CENTRAL","year":"2022","week":"3","label":"Arboviral diseases, Chikungunya virus disease","m1_flag":"-","m2":"1","m2_flag":"-","m3_flag":"-","m4":"1","m4_flag":"-","location2":"WEST NORTH CENTRAL","sort_order":"20220300090"}
        ,{"states":"IOWA","year":"2022","week":"3","label":"Arboviral diseases, Chikungunya virus disease","m1_flag":"-","m2":"0","m2_flag":"-","m3_flag":"-","m4_flag":"-","location1":"IOWA","sort_order":"20220300091","geocode":{"type":"Point","coordinates":[-93.500061,42.074659]}}
        ,{"states":"KANSAS","year":"2022","week":"3","label":"Arboviral diseases, Chikungunya virus disease","m1_flag":"-","m2":"0","m2_flag":"-","m3_flag":"-","m4_flag":"-","location1":"KANSAS","sort_order":"20220300092","geocode":{"type":"Point","coordinates":[-98.38018,38.484729]}}
        ,{"states":"MINNESOTA","year":"2022","week":"3","label":"Arboviral diseases, Chikungunya virus disease","m1_flag":"-","m2":"0","m2_flag":"-","m3_flag":"-","m4":"1","m4_flag":"-","location1":"MINNESOTA","sort_order":"20220300093","geocode":{"type":"Point","coordinates":[-94.198308,46.349153]}}
        ,{"states":"MISSOURI","year":"2022","week":"3","label":"Arboviral diseases, Chikungunya virus disease","m1_flag":"-","m2":"1","m2_flag":"-","m3_flag":"-","m4_flag":"-","location1":"MISSOURI","sort_order":"20220300094","geocode":{"type":"Point","coordinates":[-92.477244,38.3675]}}
        ,{"states":"NEBRASKA","year":"2022","week":"3","label":"Arboviral diseases, Chikungunya virus disease","m1_flag":"-","m2":"0","m2_flag":"-","m3_flag":"-","m4_flag":"-","location1":"NEBRASKA","sort_order":"20220300095","geocode":{"type":"Point","coordinates":[-99.810595,41.527099]}}
        ,{"states":"NORTH DAKOTA","year":"2022","week":"3","label":"Arboviral diseases, Chikungunya virus disease","m1_flag":"-","m2":"0","m2_flag":"-","m3_flag":"-","m4_flag":"-","location1":"NORTH DAKOTA","sort_order":"20220300096","geocode":{"type":"Point","coordinates":[-100.46931,47.446305]}}
        ,{"states":"SOUTH DAKOTA","year":"2022","week":"3","label":"Arboviral diseases, Chikungunya virus disease","m1_flag":"-","m2":"0","m2_flag":"-","m3_flag":"-","m4_flag":"-","location1":"SOUTH DAKOTA","sort_order":"20220300097","geocode":{"type":"Point","coordinates":[-100.230491,44.43614]}}
        ,{"states":"SOUTH ATLANTIC","year":"2022","week":"3","label":"Arboviral diseases, Chikungunya virus disease","m1_flag":"-","m2":"1","m2_flag":"-","m3_flag":"-","m4_flag":"-","location2":"SOUTH ATLANTIC","sort_order":"20220300098"}
        ,{"states":"DELAWARE","year":"2022","week":"3","label":"Arboviral diseases, Chikungunya virus disease","m1_flag":"-","m2":"0","m2_flag":"-","m3_flag":"-","m4_flag":"-","location1":"DELAWARE","sort_order":"20220300099","geocode":{"type":"Point","coordinates":[-75.452394,38.994926]}}
        ,{"states":"DISTRICT OF COLUMBIA","year":"2022","week":"3","label":"Arboviral diseases, Chikungunya virus disease","m1_flag":"-","m2":"0","m2_flag":"-","m3_flag":"-","m4_flag":"-","location1":"DISTRICT OF COLUMBIA","sort_order":"20220300100","geocode":{"type":"Point","coordinates":[-77.016275,38.904785]}}
        ,{"states":"FLORIDA","year":"2022","week":"3","label":"Arboviral diseases, Chikungunya virus disease","m1_flag":"-","m2":"1","m2_flag":"-","m3_flag":"-","m4_flag":"-","location1":"FLORIDA","sort_order":"20220300101","geocode":{"type":"Point","coordinates":[-82.420978,28.260731]}}
        ,{"states":"GEORGIA","year":"2022","week":"3","label":"Arboviral diseases, Chikungunya virus disease","m1_flag":"-","m2":"0","m2_flag":"-","m3_flag":"-","m4_flag":"-","location1":"GEORGIA","sort_order":"20220300102","geocode":{"type":"Point","coordinates":[-83.426574,32.638481]}}
        ,{"states":"MARYLAND","year":"2022","week":"3","label":"Arboviral diseases, Chikungunya virus disease","m1_flag":"-","m2":"0","m2_flag":"-","m3_flag":"-","m4_flag":"-","location1":"MARYLAND","sort_order":"20220300103","geocode":{"type":"Point","coordinates":[-76.687282,38.946466]}}
        ,{"states":"NORTH CAROLINA","year":"2022","week":"3","label":"Arboviral diseases, Chikungunya virus disease","m1_flag":"-","m2":"1","m2_flag":"-","m3_flag":"-","m4_flag":"-","location1":"NORTH CAROLINA","sort_order":"20220300104","geocode":{"type":"Point","coordinates":[-79.130883,35.52603]}}
        ,{"states":"SOUTH CAROLINA","year":"2022","week":"3","label":"Arboviral diseases, Chikungunya virus disease","m1_flag":"-","m2":"1","m2_flag":"-","m3_flag":"-","m4_flag":"-","location1":"SOUTH CAROLINA","sort_order":"20220300105","geocode":{"type":"Point","coordinates":[-80.864614,33.878572]}}
        ,{"states":"VIRGINIA","year":"2022","week":"3","label":"Arboviral diseases, Chikungunya virus disease","m1_flag":"-","m2":"0","m2_flag":"-","m3_flag":"-","m4_flag":"-","location1":"VIRGINIA","sort_order":"20220300106","geocode":{"type":"Point","coordinates":[-78.666382,37.510861]}}
        ,{"states":"WEST VIRGINIA","year":"2022","week":"3","label":"Arboviral diseases, Chikungunya virus disease","m1_flag":"-","m2":"0","m2_flag":"-","m3_flag":"-","m4_flag":"-","location1":"WEST VIRGINIA","sort_order":"20220300107","geocode":{"type":"Point","coordinates":[-80.613729,38.642579]}}
        ,{"states":"EAST SOUTH CENTRAL","year":"2022","week":"3","label":"Arboviral diseases, Chikungunya virus disease","m1_flag":"-","m2":"1","m2_flag":"-","m3_flag":"-","m4_flag":"-","location2":"EAST SOUTH CENTRAL","sort_order":"20220300108"}
        ,{"states":"ALABAMA","year":"2022","week":"3","label":"Arboviral diseases, Chikungunya virus disease","m1_flag":"-","m2":"0","m2_flag":"-","m3_flag":"-","m4_flag":"-","location1":"ALABAMA","sort_order":"20220300109","geocode":{"type":"Point","coordinates":[-86.844516,32.756889]}}
        ,{"states":"KENTUCKY","year":"2022","week":"3","label":"Arboviral diseases, Chikungunya virus disease","m1_flag":"-","m2":"1","m2_flag":"-","m3_flag":"-","m4_flag":"-","location1":"KENTUCKY","sort_order":"20220300110","geocode":{"type":"Point","coordinates":[-85.290484,37.526683]}}
        ,{"states":"MISSISSIPPI","year":"2022","week":"3","label":"Arboviral diseases, Chikungunya virus disease","m1_flag":"-","m2":"0","m2_flag":"-","m3_flag":"-","m4_flag":"-","location1":"MISSISSIPPI","sort_order":"20220300111","geocode":{"type":"Point","coordinates":[-89.65344,32.713378]}}
        ,{"states":"TENNESSEE","year":"2022","week":"3","label":"Arboviral diseases, Chikungunya virus disease","m1_flag":"-","m2":"0","m2_flag":"-","m3_flag":"-","m4_flag":"-","location1":"TENNESSEE","sort_order":"20220300112","geocode":{"type":"Point","coordinates":[-86.343226,35.842998]}}
        ,{"states":"WEST SOUTH CENTRAL","year":"2022","week":"3","label":"Arboviral diseases, Chikungunya virus disease","m1_flag":"-","m2":"1","m2_flag":"-","m3_flag":"-","m4_flag":"-","location2":"WEST SOUTH CENTRAL","sort_order":"20220300113"}
        ,{"states":"ARKANSAS","year":"2022","week":"3","label":"Arboviral diseases, Chikungunya virus disease","m1_flag":"-","m2":"0","m2_flag":"-","m3_flag":"-","m4_flag":"-","location1":"ARKANSAS","sort_order":"20220300114","geocode":{"type":"Point","coordinates":[-92.439162,34.899825]}}
        ,{"states":"LOUISIANA","year":"2022","week":"3","label":"Arboviral diseases, Chikungunya virus disease","m1_flag":"-","m2":"1","m2_flag":"-","m3_flag":"-","m4_flag":"-","location1":"LOUISIANA","sort_order":"20220300115","geocode":{"type":"Point","coordinates":[-91.840238,30.921314]}}
        ,{"states":"OKLAHOMA","year":"2022","week":"3","label":"Arboviral diseases, Chikungunya virus disease","m1_flag":"-","m2":"0","m2_flag":"-","m3_flag":"-","m4_flag":"-","location1":"OKLAHOMA","sort_order":"20220300116","geocode":{"type":"Point","coordinates":[-97.508297,35.583449]}}
        ,{"states":"TEXAS","year":"2022","week":"3","label":"Arboviral diseases, Chikungunya virus disease","m1_flag":"-","m2":"0","m2_flag":"-","m3_flag":"-","m4_flag":"-","location1":"TEXAS","sort_order":"20220300117","geocode":{"type":"Point","coordinates":[-99.317341,31.447238]}}
        ,{"states":"MOUNTAIN","year":"2022","week":"3","label":"Arboviral diseases, Chikungunya virus disease","m1_flag":"-","m2":"1","m2_flag":"-","m3_flag":"-","m4_flag":"-","location2":"MOUNTAIN","sort_order":"20220300118"}
        ,{"states":"ARIZONA","year":"2022","week":"3","label":"Arboviral diseases, Chikungunya virus disease","m1_flag":"-","m2":"0","m2_flag":"-","m3_flag":"-","m4_flag":"-","location1":"ARIZONA","sort_order":"20220300119","geocode":{"type":"Point","coordinates":[-111.664616,34.293239]}}
        ,{"states":"COLORADO","year":"2022","week":"3","label":"Arboviral diseases, Chikungunya virus disease","m1_flag":"-","m2":"1","m2_flag":"-","m3_flag":"-","m4_flag":"-","location1":"COLORADO","sort_order":"20220300120","geocode":{"type":"Point","coordinates":[-105.547832,38.998552]}}
        ,{"states":"IDAHO","year":"2022","week":"3","label":"Arboviral diseases, Chikungunya virus disease","m1_flag":"-","m2":"0","m2_flag":"-","m3_flag":"-","m4_flag":"-","location1":"IDAHO","sort_order":"20220300121","geocode":{"type":"Point","coordinates":[-114.659366,44.389073]}}
        ,{"states":"MONTANA","year":"2022","week":"3","label":"Arboviral diseases, Chikungunya virus disease","m1_flag":"-","m2":"0","m2_flag":"-","m3_flag":"-","m4_flag":"-","location1":"MONTANA","sort_order":"20220300122","geocode":{"type":"Point","coordinates":[-109.645127,47.033521]}}
        ,{"states":"NEVADA","year":"2022","week":"3","label":"Arboviral diseases, Chikungunya virus disease","m1_flag":"-","m2":"0","m2_flag":"-","m3_flag":"-","m4_flag":"-","location1":"NEVADA","sort_order":"20220300123","geocode":{"type":"Point","coordinates":[-114.916992,39.283294]}}
        ,{"states":"NEW MEXICO","year":"2022","week":"3","label":"Arboviral diseases, Chikungunya virus disease","m1_flag":"-","m2":"1","m2_flag":"-","m3_flag":"-","m4_flag":"-","location1":"NEW MEXICO","sort_order":"20220300124","geocode":{"type":"Point","coordinates":[-106.108388,34.421369]}}
        ,{"states":"UTAH","year":"2022","week":"3","label":"Arboviral diseases, Chikungunya virus disease","m1_flag":"-","m2":"0","m2_flag":"-","m3_flag":"-","m4_flag":"-","location1":"UTAH","sort_order":"20220300125","geocode":{"type":"Point","coordinates":[-111.678222,39.323779]}}
        ,{"states":"WYOMING","year":"2022","week":"3","label":"Arboviral diseases, Chikungunya virus disease","m1_flag":"-","m2":"0","m2_flag":"-","m3_flag":"-","m4_flag":"-","location1":"WYOMING","sort_order":"20220300126","geocode":{"type":"Point","coordinates":[-107.55145,42.999627]}}
        ,{"states":"PACIFIC","year":"2022","week":"3","label":"Arboviral diseases, Chikungunya virus disease","m1_flag":"-","m2":"1","m2_flag":"-","m3_flag":"-","m4":"1","m4_flag":"-","location2":"PACIFIC","sort_order":"20220300127"}
        ,{"states":"ALASKA","year":"2022","week":"3","label":"Arboviral diseases, Chikungunya virus disease","m1_flag":"-","m2":"0","m2_flag":"-","m3_flag":"-","m4_flag":"-","location1":"ALASKA","sort_order":"20220300128","geocode":{"type":"Point","coordinates":[-151.631889,63.631126]}}
        ,{"states":"CALIFORNIA","year":"2022","week":"3","label":"Arboviral diseases, Chikungunya virus disease","m1_flag":"-","m2":"1","m2_flag":"-","m3_flag":"-","m4":"1","m4_flag":"-","location1":"CALIFORNIA","sort_order":"20220300129","geocode":{"type":"Point","coordinates":[-119.662127,37.211164]}}
        ,{"states":"HAWAII","year":"2022","week":"3","label":"Arboviral diseases, Chikungunya virus disease","m1_flag":"-","m2":"0","m2_flag":"-","m3_flag":"-","m4_flag":"-","location1":"HAWAII","sort_order":"20220300130","geocode":{"type":"Point","coordinates":[-157.854309,21.361013]}}
        ,{"states":"OREGON","year":"2022","week":"3","label":"Arboviral diseases, Chikungunya virus disease","m1_flag":"-","m2":"1","m2_flag":"-","m3_flag":"-","m4_flag":"-","location1":"OREGON","sort_order":"20220300131","geocode":{"type":"Point","coordinates":[-120.605279,43.940449]}}
        ,{"states":"WASHINGTON","year":"2022","week":"3","label":"Arboviral diseases, Chikungunya virus disease","m1_flag":"-","m2":"1","m2_flag":"-","m3_flag":"-","m4_flag":"-","location1":"WASHINGTON","sort_order":"20220300132","geocode":{"type":"Point","coordinates":[-120.592492,47.411715]}}
        ,{"states":"US TERRITORIES","year":"2022","week":"3","label":"Arboviral diseases, Chikungunya virus disease","m1_flag":"-","m2":"0","m2_flag":"-","m3_flag":"-","m4_flag":"-","location2":"US TERRITORIES","sort_order":"20220300133"}
        ,{"states":"AMERICAN SAMOA","year":"2022","week":"3","label":"Arboviral diseases, Chikungunya virus disease","m1_flag":"-","m2":"0","m2_flag":"-","m3_flag":"-","m4_flag":"-","location1":"AMERICAN SAMOA","sort_order":"20220300134"}
        ,{"states":"NORTHERN MARIANA ISLANDS","year":"2022","week":"3","label":"Arboviral diseases, Chikungunya virus disease","m1_flag":"-","m2":"0","m2_flag":"-","m3_flag":"-","m4_flag":"-","location1":"NORTHERN MARIANA ISLANDS","sort_order":"20220300135","geocode":{"type":"Point","coordinates":[145.725693,15.1834]}}
        ,{"states":"GUAM","year":"2022","week":"3","label":"Arboviral diseases, Chikungunya virus disease","m1_flag":"-","m2":"0","m2_flag":"-","m3_flag":"-","m4_flag":"-","location1":"GUAM","sort_order":"20220300136","geocode":{"type":"Point","coordinates":[144.653198,13.3532]}}
        ,{"states":"PUERTO RICO","year":"2022","week":"3","label":"Arboviral diseases, Chikungunya virus disease","m1_flag":"-","m2":"0","m2_flag":"-","m3_flag":"-","m4_flag":"-","location1":"PUERTO RICO","sort_order":"20220300137","geocode":{"type":"Point","coordinates":[-66.414655,18.215692]}}
        ,{"states":"U.S. VIRGIN ISLANDS","year":"2022","week":"3","label":"Arboviral diseases, Chikungunya virus disease","m1_flag":"-","m2":"0","m2_flag":"-","m3_flag":"-","m4_flag":"-","location1":"U.S. VIRGIN ISLANDS","sort_order":"20220300138"}
        ,{"states":"NON-US RESIDENTS","year":"2022","week":"3","label":"Arboviral diseases, Chikungunya virus disease","m1_flag":"-","m2":"0","m2_flag":"-","m3_flag":"-","m4_flag":"-","location2":"NON-US RESIDENTS","sort_order":"20220300139"}
        ,{"states":"TOTAL","year":"2022","week":"3","label":"Arboviral diseases, Chikungunya virus disease","m1_flag":"-","m2":"2","m2_flag":"-","m3_flag":"-","m4":"2","m4_flag":"-","location2":"TOTAL","sort_order":"20220300140"}
        ,{"states":"US RESIDENTS","year":"2022","week":"3","label":"Arboviral diseases, Eastern equine encephalitis virus disease","m1_flag":"-","m2":"1","m2_flag":"-","m3_flag":"-","m4_flag":"-","location2":"US RESIDENTS","sort_order":"20220300141"}
        ,{"states":"NEW ENGLAND","year":"2022","week":"3","label":"Arboviral diseases, Eastern equine encephalitis virus disease","m1_flag":"-","m2":"0","m2_flag":"-","m3_flag":"-","m4_flag":"-","location2":"NEW ENGLAND","sort_order":"20220300142"}
        ,{"states":"CONNECTICUT","year":"2022","week":"3","label":"Arboviral diseases, Eastern equine encephalitis virus disease","m1_flag":"-","m2":"0","m2_flag":"-","m3_flag":"-","m4_flag":"-","location1":"CONNECTICUT","sort_order":"20220300143","geocode":{"type":"Point","coordinates":[-72.738288,41.575155]}}
        ,{"states":"MAINE","year":"2022","week":"3","label":"Arboviral diseases, Eastern equine encephalitis virus disease","m1_flag":"-","m2":"0","m2_flag":"-","m3_flag":"-","m4_flag":"-","location1":"MAINE","sort_order":"20220300144","geocode":{"type":"Point","coordinates":[-69.06137,45.117911]}}
        ,{"states":"MASSACHUSETTS","year":"2022","week":"3","label":"Arboviral diseases, Eastern equine encephalitis virus disease","m1_flag":"-","m2":"0","m2_flag":"-","m3_flag":"-","m4_flag":"-","location1":"MASSACHUSETTS","sort_order":"20220300145","geocode":{"type":"Point","coordinates":[-71.481104,42.151077]}}
        ,{"states":"NEW HAMPSHIRE","year":"2022","week":"3","label":"Arboviral diseases, Eastern equine encephalitis virus disease","m1_flag":"-","m2":"0","m2_flag":"-","m3_flag":"-","m4_flag":"-","location1":"NEW HAMPSHIRE","sort_order":"20220300146","geocode":{"type":"Point","coordinates":[-71.57139,43.680429]}}
        ,{"states":"RHODE ISLAND","year":"2022","week":"3","label":"Arboviral diseases, Eastern equine encephalitis virus disease","m1_flag":"-","m2":"0","m2_flag":"-","m3_flag":"-","m4_flag":"-","location1":"RHODE ISLAND","sort_order":"20220300147","geocode":{"type":"Point","coordinates":[-71.534637,41.572574]}}
        ,{"states":"VERMONT","year":"2022","week":"3","label":"Arboviral diseases, Eastern equine encephalitis virus disease","m1_flag":"-","m2":"0","m2_flag":"-","m3_flag":"-","m4_flag":"-","location1":"VERMONT","sort_order":"20220300148","geocode":{"type":"Point","coordinates":[-72.662695,44.075252]}}
        ,{"states":"MIDDLE ATLANTIC","year":"2022","week":"3","label":"Arboviral diseases, Eastern equine encephalitis virus disease","m1_flag":"-","m2":"0","m2_flag":"-","m3_flag":"-","m4_flag":"-","location2":"MIDDLE ATLANTIC","sort_order":"20220300149"}
        ,{"states":"NEW JERSEY","year":"2022","week":"3","label":"Arboviral diseases, Eastern equine encephalitis virus disease","m1_flag":"-","m2":"0","m2_flag":"-","m3_flag":"-","m4_flag":"-","location1":"NEW JERSEY","sort_order":"20220300150","geocode":{"type":"Point","coordinates":[-74.655514,40.110253]}}
        ,{"states":"NEW YORK","year":"2022","week":"3","label":"Arboviral diseases, Eastern equine encephalitis virus disease","m1_flag":"-","m2":"0","m2_flag":"-","m3_flag":"-","m4_flag":"-","location1":"NEW YORK","sort_order":"20220300151","geocode":{"type":"Point","coordinates":[-75.59655,42.921241]}}
        ,{"states":"NEW YORK CITY","year":"2022","week":"3","label":"Arboviral diseases, Eastern equine encephalitis virus disease","m1_flag":"-","m2":"0","m2_flag":"-","m3_flag":"-","m4_flag":"-","location1":"NEW YORK CITY","sort_order":"20220300152"}
        ,{"states":"PENNSYLVANIA","year":"2022","week":"3","label":"Arboviral diseases, Eastern equine encephalitis virus disease","m1_flag":"-","m2":"0","m2_flag":"-","m3_flag":"-","m4_flag":"-","location1":"PENNSYLVANIA","sort_order":"20220300153","geocode":{"type":"Point","coordinates":[-77.838886,40.896694]}}
        ,{"states":"EAST NORTH CENTRAL","year":"2022","week":"3","label":"Arboviral diseases, Eastern equine encephalitis virus disease","m1_flag":"-","m2":"1","m2_flag":"-","m3_flag":"-","m4_flag":"-","location2":"EAST NORTH CENTRAL","sort_order":"20220300154"}
        ,{"states":"ILLINOIS","year":"2022","week":"3","label":"Arboviral diseases, Eastern equine encephalitis virus disease","m1_flag":"-","m2":"0","m2_flag":"-","m3_flag":"-","m4_flag":"-","location1":"ILLINOIS","sort_order":"20220300155","geocode":{"type":"Point","coordinates":[-89.148632,40.124144]}}
        ,{"states":"INDIANA","year":"2022","week":"3","label":"Arboviral diseases, Eastern equine encephalitis virus disease","m1_flag":"-","m2":"0","m2_flag":"-","m3_flag":"-","m4_flag":"-","location1":"INDIANA","sort_order":"20220300156","geocode":{"type":"Point","coordinates":[-86.2818,39.919991]}}
        ,{"states":"MICHIGAN","year":"2022","week":"3","label":"Arboviral diseases, Eastern equine encephalitis virus disease","m1_flag":"-","m2":"1","m2_flag":"-","m3_flag":"-","m4_flag":"-","location1":"MICHIGAN","sort_order":"20220300157","geocode":{"type":"Point","coordinates":[-85.730977,44.874798]}}
        ,{"states":"OHIO","year":"2022","week":"3","label":"Arboviral diseases, Eastern equine encephalitis virus disease","m1_flag":"-","m2":"0","m2_flag":"-","m3_flag":"-","m4_flag":"-","location1":"OHIO","sort_order":"20220300158","geocode":{"type":"Point","coordinates":[-82.70936,40.415534]}}
        ,{"states":"WISCONSIN","year":"2022","week":"3","label":"Arboviral diseases, Eastern equine encephalitis virus disease","m1_flag":"-","m2":"1","m2_flag":"-","m3_flag":"-","m4_flag":"-","location1":"WISCONSIN","sort_order":"20220300159","geocode":{"type":"Point","coordinates":[-89.732969,44.639954]}}
        ,{"states":"WEST NORTH CENTRAL","year":"2022","week":"3","label":"Arboviral diseases, Eastern equine encephalitis virus disease","m1_flag":"-","m2":"0","m2_flag":"-","m3_flag":"-","m4_flag":"-","location2":"WEST NORTH CENTRAL","sort_order":"20220300160"}
        ,{"states":"IOWA","year":"2022","week":"3","label":"Arboviral diseases, Eastern equine encephalitis virus disease","m1_flag":"-","m2":"0","m2_flag":"-","m3_flag":"-","m4_flag":"-","location1":"IOWA","sort_order":"20220300161","geocode":{"type":"Point","coordinates":[-93.500061,42.074659]}}
        ,{"states":"KANSAS","year":"2022","week":"3","label":"Arboviral diseases, Eastern equine encephalitis virus disease","m1_flag":"-","m2":"0","m2_flag":"-","m3_flag":"-","m4_flag":"-","location1":"KANSAS","sort_order":"20220300162","geocode":{"type":"Point","coordinates":[-98.38018,38.484729]}}
        ,{"states":"MINNESOTA","year":"2022","week":"3","label":"Arboviral diseases, Eastern equine encephalitis virus disease","m1_flag":"-","m2":"0","m2_flag":"-","m3_flag":"-","m4_flag":"-","location1":"MINNESOTA","sort_order":"20220300163","geocode":{"type":"Point","coordinates":[-94.198308,46.349153]}}
        ,{"states":"MISSOURI","year":"2022","week":"3","label":"Arboviral diseases, Eastern equine encephalitis virus disease","m1_flag":"-","m2":"0","m2_flag":"-","m3_flag":"-","m4_flag":"-","location1":"MISSOURI","sort_order":"20220300164","geocode":{"type":"Point","coordinates":[-92.477244,38.3675]}}
        ,{"states":"NEBRASKA","year":"2022","week":"3","label":"Arboviral diseases, Eastern equine encephalitis virus disease","m1_flag":"-","m2":"0","m2_flag":"-","m3_flag":"-","m4_flag":"-","location1":"NEBRASKA","sort_order":"20220300165","geocode":{"type":"Point","coordinates":[-99.810595,41.527099]}}
        ,{"states":"NORTH DAKOTA","year":"2022","week":"3","label":"Arboviral diseases, Eastern equine encephalitis virus disease","m1_flag":"-","m2":"0","m2_flag":"-","m3_flag":"-","m4_flag":"-","location1":"NORTH DAKOTA","sort_order":"20220300166","geocode":{"type":"Point","coordinates":[-100.46931,47.446305]}}
        ,{"states":"SOUTH DAKOTA","year":"2022","week":"3","label":"Arboviral diseases, Eastern equine encephalitis virus disease","m1_flag":"-","m2":"0","m2_flag":"-","m3_flag":"-","m4_flag":"-","location1":"SOUTH DAKOTA","sort_order":"20220300167","geocode":{"type":"Point","coordinates":[-100.230491,44.43614]}}
        ,{"states":"SOUTH ATLANTIC","year":"2022","week":"3","label":"Arboviral diseases, Eastern equine encephalitis virus disease","m1_flag":"-","m2":"1","m2_flag":"-","m3_flag":"-","m4_flag":"-","location2":"SOUTH ATLANTIC","sort_order":"20220300168"}
        ,{"states":"DELAWARE","year":"2022","week":"3","label":"Arboviral diseases, Eastern equine encephalitis virus disease","m1_flag":"-","m2":"0","m2_flag":"-","m3_flag":"-","m4_flag":"-","location1":"DELAWARE","sort_order":"20220300169","geocode":{"type":"Point","coordinates":[-75.452394,38.994926]}}
        ,{"states":"DISTRICT OF COLUMBIA","year":"2022","week":"3","label":"Arboviral diseases, Eastern equine encephalitis virus disease","m1_flag":"-","m2":"0","m2_flag":"-","m3_flag":"-","m4_flag":"-","location1":"DISTRICT OF COLUMBIA","sort_order":"20220300170","geocode":{"type":"Point","coordinates":[-77.016275,38.904785]}}
        ,{"states":"FLORIDA","year":"2022","week":"3","label":"Arboviral diseases, Eastern equine encephalitis virus disease","m1_flag":"-","m2":"0","m2_flag":"-","m3_flag":"-","m4_flag":"-","location1":"FLORIDA","sort_order":"20220300171","geocode":{"type":"Point","coordinates":[-82.420978,28.260731]}}
        ,{"states":"GEORGIA","year":"2022","week":"3","label":"Arboviral diseases, Eastern equine encephalitis virus disease","m1_flag":"-","m2":"1","m2_flag":"-","m3_flag":"-","m4_flag":"-","location1":"GEORGIA","sort_order":"20220300172","geocode":{"type":"Point","coordinates":[-83.426574,32.638481]}}
        ,{"states":"MARYLAND","year":"2022","week":"3","label":"Arboviral diseases, Eastern equine encephalitis virus disease","m1_flag":"-","m2":"0","m2_flag":"-","m3_flag":"-","m4_flag":"-","location1":"MARYLAND","sort_order":"20220300173","geocode":{"type":"Point","coordinates":[-76.687282,38.946466]}}
        ,{"states":"NORTH CAROLINA","year":"2022","week":"3","label":"Arboviral diseases, Eastern equine encephalitis virus disease","m1_flag":"-","m2":"1","m2_flag":"-","m3_flag":"-","m4_flag":"-","location1":"NORTH CAROLINA","sort_order":"20220300174","geocode":{"type":"Point","coordinates":[-79.130883,35.52603]}}
        ,{"states":"SOUTH CAROLINA","year":"2022","week":"3","label":"Arboviral diseases, Eastern equine encephalitis virus disease","m1_flag":"-","m2":"0","m2_flag":"-","m3_flag":"-","m4_flag":"-","location1":"SOUTH CAROLINA","sort_order":"20220300175","geocode":{"type":"Point","coordinates":[-80.864614,33.878572]}}
        ,{"states":"VIRGINIA","year":"2022","week":"3","label":"Arboviral diseases, Eastern equine encephalitis virus disease","m1_flag":"-","m2":"0","m2_flag":"-","m3_flag":"-","m4_flag":"-","location1":"VIRGINIA","sort_order":"20220300176","geocode":{"type":"Point","coordinates":[-78.666382,37.510861]}}
        ,{"states":"WEST VIRGINIA","year":"2022","week":"3","label":"Arboviral diseases, Eastern equine encephalitis virus disease","m1_flag":"-","m2":"0","m2_flag":"-","m3_flag":"-","m4_flag":"-","location1":"WEST VIRGINIA","sort_order":"20220300177","geocode":{"type":"Point","coordinates":[-80.613729,38.642579]}}
        ,{"states":"EAST SOUTH CENTRAL","year":"2022","week":"3","label":"Arboviral diseases, Eastern equine encephalitis virus disease","m1_flag":"-","m2":"0","m2_flag":"-","m3_flag":"-","m4_flag":"-","location2":"EAST SOUTH CENTRAL","sort_order":"20220300178"}
        ,{"states":"ALABAMA","year":"2022","week":"3","label":"Arboviral diseases, Eastern equine encephalitis virus disease","m1_flag":"-","m2":"0","m2_flag":"-","m3_flag":"-","m4_flag":"-","location1":"ALABAMA","sort_order":"20220300179","geocode":{"type":"Point","coordinates":[-86.844516,32.756889]}}
        ,{"states":"KENTUCKY","year":"2022","week":"3","label":"Arboviral diseases, Eastern equine encephalitis virus disease","m1_flag":"-","m2":"0","m2_flag":"-","m3_flag":"-","m4_flag":"-","location1":"KENTUCKY","sort_order":"20220300180","geocode":{"type":"Point","coordinates":[-85.290484,37.526683]}}
        ,{"states":"MISSISSIPPI","year":"2022","week":"3","label":"Arboviral diseases, Eastern equine encephalitis virus disease","m1_flag":"-","m2":"0","m2_flag":"-","m3_flag":"-","m4_flag":"-","location1":"MISSISSIPPI","sort_order":"20220300181","geocode":{"type":"Point","coordinates":[-89.65344,32.713378]}}
        ,{"states":"TENNESSEE","year":"2022","week":"3","label":"Arboviral diseases, Eastern equine encephalitis virus disease","m1_flag":"-","m2":"0","m2_flag":"-","m3_flag":"-","m4_flag":"-","location1":"TENNESSEE","sort_order":"20220300182","geocode":{"type":"Point","coordinates":[-86.343226,35.842998]}}
        ,{"states":"WEST SOUTH CENTRAL","year":"2022","week":"3","label":"Arboviral diseases, Eastern equine encephalitis virus disease","m1_flag":"-","m2":"0","m2_flag":"-","m3_flag":"-","m4_flag":"-","location2":"WEST SOUTH CENTRAL","sort_order":"20220300183"}
        ,{"states":"ARKANSAS","year":"2022","week":"3","label":"Arboviral diseases, Eastern equine encephalitis virus disease","m1_flag":"-","m2":"0","m2_flag":"-","m3_flag":"-","m4_flag":"-","location1":"ARKANSAS","sort_order":"20220300184","geocode":{"type":"Point","coordinates":[-92.439162,34.899825]}}
        ,{"states":"LOUISIANA","year":"2022","week":"3","label":"Arboviral diseases, Eastern equine encephalitis virus disease","m1_flag":"-","m2":"0","m2_flag":"-","m3_flag":"-","m4_flag":"-","location1":"LOUISIANA","sort_order":"20220300185","geocode":{"type":"Point","coordinates":[-91.840238,30.921314]}}
        ,{"states":"OKLAHOMA","year":"2022","week":"3","label":"Arboviral diseases, Eastern equine encephalitis virus disease","m1_flag":"-","m2":"0","m2_flag":"-","m3_flag":"-","m4_flag":"-","location1":"OKLAHOMA","sort_order":"20220300186","geocode":{"type":"Point","coordinates":[-97.508297,35.583449]}}
        ,{"states":"TEXAS","year":"2022","week":"3","label":"Arboviral diseases, Eastern equine encephalitis virus disease","m1_flag":"-","m2":"0","m2_flag":"-","m3_flag":"-","m4_flag":"-","location1":"TEXAS","sort_order":"20220300187","geocode":{"type":"Point","coordinates":[-99.317341,31.447238]}}
        ,{"states":"MOUNTAIN","year":"2022","week":"3","label":"Arboviral diseases, Eastern equine encephalitis virus disease","m1_flag":"-","m2":"0","m2_flag":"-","m3_flag":"-","m4_flag":"-","location2":"MOUNTAIN","sort_order":"20220300188"}
        ,{"states":"ARIZONA","year":"2022","week":"3","label":"Arboviral diseases, Eastern equine encephalitis virus disease","m1_flag":"-","m2":"0","m2_flag":"-","m3_flag":"-","m4_flag":"-","location1":"ARIZONA","sort_order":"20220300189","geocode":{"type":"Point","coordinates":[-111.664616,34.293239]}}
        ,{"states":"COLORADO","year":"2022","week":"3","label":"Arboviral diseases, Eastern equine encephalitis virus disease","m1_flag":"-","m2":"0","m2_flag":"-","m3_flag":"-","m4_flag":"-","location1":"COLORADO","sort_order":"20220300190","geocode":{"type":"Point","coordinates":[-105.547832,38.998552]}}
        ,{"states":"IDAHO","year":"2022","week":"3","label":"Arboviral diseases, Eastern equine encephalitis virus disease","m1_flag":"-","m2":"0","m2_flag":"-","m3_flag":"-","m4_flag":"-","location1":"IDAHO","sort_order":"20220300191","geocode":{"type":"Point","coordinates":[-114.659366,44.389073]}}
        ,{"states":"MONTANA","year":"2022","week":"3","label":"Arboviral diseases, Eastern equine encephalitis virus disease","m1_flag":"-","m2":"0","m2_flag":"-","m3_flag":"-","m4_flag":"-","location1":"MONTANA","sort_order":"20220300192","geocode":{"type":"Point","coordinates":[-109.645127,47.033521]}}
        ,{"states":"NEVADA","year":"2022","week":"3","label":"Arboviral diseases, Eastern equine encephalitis virus disease","m1_flag":"-","m2":"0","m2_flag":"-","m3_flag":"-","m4_flag":"-","location1":"NEVADA","sort_order":"20220300193","geocode":{"type":"Point","coordinates":[-114.916992,39.283294]}}
        ,{"states":"NEW MEXICO","year":"2022","week":"3","label":"Arboviral diseases, Eastern equine encephalitis virus disease","m1_flag":"-","m2":"0","m2_flag":"-","m3_flag":"-","m4_flag":"-","location1":"NEW MEXICO","sort_order":"20220300194","geocode":{"type":"Point","coordinates":[-106.108388,34.421369]}}
        ,{"states":"UTAH","year":"2022","week":"3","label":"Arboviral diseases, Eastern equine encephalitis virus disease","m1_flag":"-","m2":"0","m2_flag":"-","m3_flag":"-","m4_flag":"-","location1":"UTAH","sort_order":"20220300195","geocode":{"type":"Point","coordinates":[-111.678222,39.323779]}}
        ,{"states":"WYOMING","year":"2022","week":"3","label":"Arboviral diseases, Eastern equine encephalitis virus disease","m1_flag":"-","m2":"0","m2_flag":"-","m3_flag":"-","m4_flag":"-","location1":"WYOMING","sort_order":"20220300196","geocode":{"type":"Point","coordinates":[-107.55145,42.999627]}}
        ,{"states":"PACIFIC","year":"2022","week":"3","label":"Arboviral diseases, Eastern equine encephalitis virus disease","m1_flag":"-","m2":"0","m2_flag":"-","m3_flag":"-","m4_flag":"-","location2":"PACIFIC","sort_order":"20220300197"}
        ,{"states":"ALASKA","year":"2022","week":"3","label":"Arboviral diseases, Eastern equine encephalitis virus disease","m1_flag":"-","m2":"0","m2_flag":"-","m3_flag":"-","m4_flag":"-","location1":"ALASKA","sort_order":"20220300198","geocode":{"type":"Point","coordinates":[-151.631889,63.631126]}}
        ,{"states":"CALIFORNIA","year":"2022","week":"3","label":"Arboviral diseases, Eastern equine encephalitis virus disease","m1_flag":"-","m2":"0","m2_flag":"-","m3_flag":"-","m4_flag":"-","location1":"CALIFORNIA","sort_order":"20220300199","geocode":{"type":"Point","coordinates":[-119.662127,37.211164]}}
        ,{"states":"HAWAII","year":"2022","week":"3","label":"Arboviral diseases, Eastern equine encephalitis virus disease","m1_flag":"-","m2":"0","m2_flag":"-","m3_flag":"-","m4_flag":"-","location1":"HAWAII","sort_order":"20220300200","geocode":{"type":"Point","coordinates":[-157.854309,21.361013]}}
        ,{"states":"OREGON","year":"2022","week":"3","label":"Arboviral diseases, Eastern equine encephalitis virus disease","m1_flag":"-","m2":"0","m2_flag":"-","m3_flag":"-","m4_flag":"-","location1":"OREGON","sort_order":"20220300201","geocode":{"type":"Point","coordinates":[-120.605279,43.940449]}}
        ,{"states":"WASHINGTON","year":"2022","week":"3","label":"Arboviral diseases, Eastern equine encephalitis virus disease","m1_flag":"-","m2":"0","m2_flag":"-","m3_flag":"-","m4_flag":"-","location1":"WASHINGTON","sort_order":"20220300202","geocode":{"type":"Point","coordinates":[-120.592492,47.411715]}}
        ,{"states":"US TERRITORIES","year":"2022","week":"3","label":"Arboviral diseases, Eastern equine encephalitis virus disease","m1_flag":"-","m2":"0","m2_flag":"-","m3_flag":"-","m4_flag":"-","location2":"US TERRITORIES","sort_order":"20220300203"}
        ,{"states":"AMERICAN SAMOA","year":"2022","week":"3","label":"Arboviral diseases, Eastern equine encephalitis virus disease","m1_flag":"-","m2":"0","m2_flag":"-","m3_flag":"-","m4_flag":"-","location1":"AMERICAN SAMOA","sort_order":"20220300204"}
        ,{"states":"NORTHERN MARIANA ISLANDS","year":"2022","week":"3","label":"Arboviral diseases, Eastern equine encephalitis virus disease","m1_flag":"-","m2":"0","m2_flag":"-","m3_flag":"-","m4_flag":"-","location1":"NORTHERN MARIANA ISLANDS","sort_order":"20220300205","geocode":{"type":"Point","coordinates":[145.725693,15.1834]}}
        ,{"states":"GUAM","year":"2022","week":"3","label":"Arboviral diseases, Eastern equine encephalitis virus disease","m1_flag":"-","m2":"0","m2_flag":"-","m3_flag":"-","m4_flag":"-","location1":"GUAM","sort_order":"20220300206","geocode":{"type":"Point","coordinates":[144.653198,13.3532]}}
        ,{"states":"PUERTO RICO","year":"2022","week":"3","label":"Arboviral diseases, Eastern equine encephalitis virus disease","m1_flag":"-","m2":"0","m2_flag":"-","m3_flag":"-","m4_flag":"-","location1":"PUERTO RICO","sort_order":"20220300207","geocode":{"type":"Point","coordinates":[-66.414655,18.215692]}}
        ,{"states":"U.S. VIRGIN ISLANDS","year":"2022","week":"3","label":"Arboviral diseases, Eastern equine encephalitis virus disease","m1_flag":"-","m2":"0","m2_flag":"-","m3_flag":"-","m4_flag":"-","location1":"U.S. VIRGIN ISLANDS","sort_order":"20220300208"}
        ,{"states":"NON-US RESIDENTS","year":"2022","week":"3","label":"Arboviral diseases, Eastern equine encephalitis virus disease","m1_flag":"-","m2":"0","m2_flag":"-","m3_flag":"-","m4_flag":"-","location2":"NON-US RESIDENTS","sort_order":"20220300209"}
        ,{"states":"TOTAL","year":"2022","week":"3","label":"Arboviral diseases, Eastern equine encephalitis virus disease","m1_flag":"-","m2":"1","m2_flag":"-","m3_flag":"-","m4_flag":"-","location2":"TOTAL","sort_order":"20220300210"}
        ,{"states":"US RESIDENTS","year":"2022","week":"3","label":"Arboviral diseases, Jamestown Canyon  virus disease","m1_flag":"-","m2":"3","m2_flag":"-","m3_flag":"-","m4_flag":"-","location2":"US RESIDENTS","sort_order":"20220300211"}
        ,{"states":"NEW ENGLAND","year":"2022","week":"3","label":"Arboviral diseases, Jamestown Canyon  virus disease","m1_flag":"-","m2":"1","m2_flag":"-","m3_flag":"-","m4_flag":"-","location2":"NEW ENGLAND","sort_order":"20220300212"}
        ,{"states":"CONNECTICUT","year":"2022","week":"3","label":"Arboviral diseases, Jamestown Canyon  virus disease","m1_flag":"-","m2":"0","m2_flag":"-","m3_flag":"-","m4_flag":"-","location1":"CONNECTICUT","sort_order":"20220300213","geocode":{"type":"Point","coordinates":[-72.738288,41.575155]}}
        ,{"states":"MAINE","year":"2022","week":"3","label":"Arboviral diseases, Jamestown Canyon  virus disease","m1_flag":"-","m2":"1","m2_flag":"-","m3_flag":"-","m4_flag":"-","location1":"MAINE","sort_order":"20220300214","geocode":{"type":"Point","coordinates":[-69.06137,45.117911]}}
        ,{"states":"MASSACHUSETTS","year":"2022","week":"3","label":"Arboviral diseases, Jamestown Canyon  virus disease","m1_flag":"-","m2":"0","m2_flag":"-","m3_flag":"-","m4_flag":"-","location1":"MASSACHUSETTS","sort_order":"20220300215","geocode":{"type":"Point","coordinates":[-71.481104,42.151077]}}
        ,{"states":"NEW HAMPSHIRE","year":"2022","week":"3","label":"Arboviral diseases, Jamestown Canyon  virus disease","m1_flag":"-","m2":"1","m2_flag":"-","m3_flag":"-","m4_flag":"-","location1":"NEW HAMPSHIRE","sort_order":"20220300216","geocode":{"type":"Point","coordinates":[-71.57139,43.680429]}}
        ,{"states":"RHODE ISLAND","year":"2022","week":"3","label":"Arboviral diseases, Jamestown Canyon  virus disease","m1_flag":"-","m2":"1","m2_flag":"-","m3_flag":"-","m4_flag":"-","location1":"RHODE ISLAND","sort_order":"20220300217","geocode":{"type":"Point","coordinates":[-71.534637,41.572574]}}
        ,{"states":"VERMONT","year":"2022","week":"3","label":"Arboviral diseases, Jamestown Canyon  virus disease","m1_flag":"-","m2":"0","m2_flag":"-","m3_flag":"-","m4_flag":"-","location1":"VERMONT","sort_order":"20220300218","geocode":{"type":"Point","coordinates":[-72.662695,44.075252]}}
        ,{"states":"MIDDLE ATLANTIC","year":"2022","week":"3","label":"Arboviral diseases, Jamestown Canyon  virus disease","m1_flag":"-","m2":"1","m2_flag":"-","m3_flag":"-","m4_flag":"-","location2":"MIDDLE ATLANTIC","sort_order":"20220300219"}
        ,{"states":"NEW JERSEY","year":"2022","week":"3","label":"Arboviral diseases, Jamestown Canyon  virus disease","m1_flag":"-","m2":"1","m2_flag":"-","m3_flag":"-","m4_flag":"-","location1":"NEW JERSEY","sort_order":"20220300220","geocode":{"type":"Point","coordinates":[-74.655514,40.110253]}}
        ,{"states":"NEW YORK","year":"2022","week":"3","label":"Arboviral diseases, Jamestown Canyon  virus disease","m1_flag":"-","m2":"0","m2_flag":"-","m3_flag":"-","m4_flag":"-","location1":"NEW YORK","sort_order":"20220300221","geocode":{"type":"Point","coordinates":[-75.59655,42.921241]}}
        ,{"states":"NEW YORK CITY","year":"2022","week":"3","label":"Arboviral diseases, Jamestown Canyon  virus disease","m1_flag":"-","m2":"0","m2_flag":"-","m3_flag":"-","m4_flag":"-","location1":"NEW YORK CITY","sort_order":"20220300222"}
        ,{"states":"PENNSYLVANIA","year":"2022","week":"3","label":"Arboviral diseases, Jamestown Canyon  virus disease","m1_flag":"-","m2":"0","m2_flag":"-","m3_flag":"-","m4_flag":"-","location1":"PENNSYLVANIA","sort_order":"20220300223","geocode":{"type":"Point","coordinates":[-77.838886,40.896694]}}
        ,{"states":"EAST NORTH CENTRAL","year":"2022","week":"3","label":"Arboviral diseases, Jamestown Canyon  virus disease","m1_flag":"-","m2":"1","m2_flag":"-","m3_flag":"-","m4_flag":"-","location2":"EAST NORTH CENTRAL","sort_order":"20220300224"}
        ,{"states":"ILLINOIS","year":"2022","week":"3","label":"Arboviral diseases, Jamestown Canyon  virus disease","m1_flag":"-","m2":"0","m2_flag":"-","m3_flag":"-","m4_flag":"-","location1":"ILLINOIS","sort_order":"20220300225","geocode":{"type":"Point","coordinates":[-89.148632,40.124144]}}
        ,{"states":"INDIANA","year":"2022","week":"3","label":"Arboviral diseases, Jamestown Canyon  virus disease","m1_flag":"-","m2":"1","m2_flag":"-","m3_flag":"-","m4_flag":"-","location1":"INDIANA","sort_order":"20220300226","geocode":{"type":"Point","coordinates":[-86.2818,39.919991]}}
        ,{"states":"MICHIGAN","year":"2022","week":"3","label":"Arboviral diseases, Jamestown Canyon  virus disease","m1_flag":"-","m2":"1","m2_flag":"-","m3_flag":"-","m4_flag":"-","location1":"MICHIGAN","sort_order":"20220300227","geocode":{"type":"Point","coordinates":[-85.730977,44.874798]}}
        ,{"states":"OHIO","year":"2022","week":"3","label":"Arboviral diseases, Jamestown Canyon  virus disease","m1_flag":"-","m2":"0","m2_flag":"-","m3_flag":"-","m4_flag":"-","location1":"OHIO","sort_order":"20220300228","geocode":{"type":"Point","coordinates":[-82.70936,40.415534]}}
        ,{"states":"WISCONSIN","year":"2022","week":"3","label":"Arboviral diseases, Jamestown Canyon  virus disease","m1_flag":"-","m2":"1","m2_flag":"-","m3_flag":"-","m4_flag":"-","location1":"WISCONSIN","sort_order":"20220300229","geocode":{"type":"Point","coordinates":[-89.732969,44.639954]}}
        ,{"states":"WEST NORTH CENTRAL","year":"2022","week":"3","label":"Arboviral diseases, Jamestown Canyon  virus disease","m1_flag":"-","m2":"1","m2_flag":"-","m3_flag":"-","m4_flag":"-","location2":"WEST NORTH CENTRAL","sort_order":"20220300230"}
        ,{"states":"IOWA","year":"2022","week":"3","label":"Arboviral diseases, Jamestown Canyon  virus disease","m1_flag":"-","m2":"0","m2_flag":"-","m3_flag":"-","m4_flag":"-","location1":"IOWA","sort_order":"20220300231","geocode":{"type":"Point","coordinates":[-93.500061,42.074659]}}
        ,{"states":"KANSAS","year":"2022","week":"3","label":"Arboviral diseases, Jamestown Canyon  virus disease","m1_flag":"-","m2":"0","m2_flag":"-","m3_flag":"-","m4_flag":"-","location1":"KANSAS","sort_order":"20220300232","geocode":{"type":"Point","coordinates":[-98.38018,38.484729]}}
        ,{"states":"MINNESOTA","year":"2022","week":"3","label":"Arboviral diseases, Jamestown Canyon  virus disease","m1_flag":"-","m2":"1","m2_flag":"-","m3_flag":"-","m4_flag":"-","location1":"MINNESOTA","sort_order":"20220300233","geocode":{"type":"Point","coordinates":[-94.198308,46.349153]}}
        ,{"states":"MISSOURI","year":"2022","week":"3","label":"Arboviral diseases, Jamestown Canyon  virus disease","m1_flag":"-","m2":"0","m2_flag":"-","m3_flag":"-","m4_flag":"-","location1":"MISSOURI","sort_order":"20220300234","geocode":{"type":"Point","coordinates":[-92.477244,38.3675]}}
        ,{"states":"NEBRASKA","year":"2022","week":"3","label":"Arboviral diseases, Jamestown Canyon  virus disease","m1_flag":"-","m2":"0","m2_flag":"-","m3_flag":"-","m4_flag":"-","location1":"NEBRASKA","sort_order":"20220300235","geocode":{"type":"Point","coordinates":[-99.810595,41.527099]}}
        ,{"states":"NORTH DAKOTA","year":"2022","week":"3","label":"Arboviral diseases, Jamestown Canyon  virus disease","m1_flag":"-","m2":"0","m2_flag":"-","m3_flag":"-","m4_flag":"-","location1":"NORTH DAKOTA","sort_order":"20220300236","geocode":{"type":"Point","coordinates":[-100.46931,47.446305]}}
        ,{"states":"SOUTH DAKOTA","year":"2022","week":"3","label":"Arboviral diseases, Jamestown Canyon  virus disease","m1_flag":"-","m2":"0","m2_flag":"-","m3_flag":"-","m4_flag":"-","location1":"SOUTH DAKOTA","sort_order":"20220300237","geocode":{"type":"Point","coordinates":[-100.230491,44.43614]}}
        ,{"states":"SOUTH ATLANTIC","year":"2022","week":"3","label":"Arboviral diseases, Jamestown Canyon  virus disease","m1_flag":"-","m2":"0","m2_flag":"-","m3_flag":"-","m4_flag":"-","location2":"SOUTH ATLANTIC","sort_order":"20220300238"}
        ,{"states":"DELAWARE","year":"2022","week":"3","label":"Arboviral diseases, Jamestown Canyon  virus disease","m1_flag":"-","m2":"0","m2_flag":"-","m3_flag":"-","m4_flag":"-","location1":"DELAWARE","sort_order":"20220300239","geocode":{"type":"Point","coordinates":[-75.452394,38.994926]}}
        ,{"states":"DISTRICT OF COLUMBIA","year":"2022","week":"3","label":"Arboviral diseases, Jamestown Canyon  virus disease","m1_flag":"-","m2":"0","m2_flag":"-","m3_flag":"-","m4_flag":"-","location1":"DISTRICT OF COLUMBIA","sort_order":"20220300240","geocode":{"type":"Point","coordinates":[-77.016275,38.904785]}}
        ,{"states":"FLORIDA","year":"2022","week":"3","label":"Arboviral diseases, Jamestown Canyon  virus disease","m1_flag":"-","m2":"0","m2_flag":"-","m3_flag":"-","m4_flag":"-","location1":"FLORIDA","sort_order":"20220300241","geocode":{"type":"Point","coordinates":[-82.420978,28.260731]}}
        ,{"states":"GEORGIA","year":"2022","week":"3","label":"Arboviral diseases, Jamestown Canyon  virus disease","m1_flag":"-","m2":"0","m2_flag":"-","m3_flag":"-","m4_flag":"-","location1":"GEORGIA","sort_order":"20220300242","geocode":{"type":"Point","coordinates":[-83.426574,32.638481]}}
        ,{"states":"MARYLAND","year":"2022","week":"3","label":"Arboviral diseases, Jamestown Canyon  virus disease","m1_flag":"-","m2":"0","m2_flag":"-","m3_flag":"-","m4_flag":"-","location1":"MARYLAND","sort_order":"20220300243","geocode":{"type":"Point","coordinates":[-76.687282,38.946466]}}
        ,{"states":"NORTH CAROLINA","year":"2022","week":"3","label":"Arboviral diseases, Jamestown Canyon  virus disease","m1_flag":"-","m2":"0","m2_flag":"-","m3_flag":"-","m4_flag":"-","location1":"NORTH CAROLINA","sort_order":"20220300244","geocode":{"type":"Point","coordinates":[-79.130883,35.52603]}}
        ,{"states":"SOUTH CAROLINA","year":"2022","week":"3","label":"Arboviral diseases, Jamestown Canyon  virus disease","m1_flag":"-","m2":"0","m2_flag":"-","m3_flag":"-","m4_flag":"-","location1":"SOUTH CAROLINA","sort_order":"20220300245","geocode":{"type":"Point","coordinates":[-80.864614,33.878572]}}
        ,{"states":"VIRGINIA","year":"2022","week":"3","label":"Arboviral diseases, Jamestown Canyon  virus disease","m1_flag":"-","m2":"0","m2_flag":"-","m3_flag":"-","m4_flag":"-","location1":"VIRGINIA","sort_order":"20220300246","geocode":{"type":"Point","coordinates":[-78.666382,37.510861]}}
        ,{"states":"WEST VIRGINIA","year":"2022","week":"3","label":"Arboviral diseases, Jamestown Canyon  virus disease","m1_flag":"-","m2":"0","m2_flag":"-","m3_flag":"-","m4_flag":"-","location1":"WEST VIRGINIA","sort_order":"20220300247","geocode":{"type":"Point","coordinates":[-80.613729,38.642579]}}
        ,{"states":"EAST SOUTH CENTRAL","year":"2022","week":"3","label":"Arboviral diseases, Jamestown Canyon  virus disease","m1_flag":"-","m2":"0","m2_flag":"-","m3_flag":"-","m4_flag":"-","location2":"EAST SOUTH CENTRAL","sort_order":"20220300248"}
        ,{"states":"ALABAMA","year":"2022","week":"3","label":"Arboviral diseases, Jamestown Canyon  virus disease","m1_flag":"-","m2":"0","m2_flag":"-","m3_flag":"-","m4_flag":"-","location1":"ALABAMA","sort_order":"20220300249","geocode":{"type":"Point","coordinates":[-86.844516,32.756889]}}
        ,{"states":"KENTUCKY","year":"2022","week":"3","label":"Arboviral diseases, Jamestown Canyon  virus disease","m1_flag":"-","m2":"0","m2_flag":"-","m3_flag":"-","m4_flag":"-","location1":"KENTUCKY","sort_order":"20220300250","geocode":{"type":"Point","coordinates":[-85.290484,37.526683]}}
        ,{"states":"MISSISSIPPI","year":"2022","week":"3","label":"Arboviral diseases, Jamestown Canyon  virus disease","m1_flag":"-","m2":"0","m2_flag":"-","m3_flag":"-","m4_flag":"-","location1":"MISSISSIPPI","sort_order":"20220300251","geocode":{"type":"Point","coordinates":[-89.65344,32.713378]}}
        ,{"states":"TENNESSEE","year":"2022","week":"3","label":"Arboviral diseases, Jamestown Canyon  virus disease","m1_flag":"-","m2":"0","m2_flag":"-","m3_flag":"-","m4_flag":"-","location1":"TENNESSEE","sort_order":"20220300252","geocode":{"type":"Point","coordinates":[-86.343226,35.842998]}}
        ,{"states":"WEST SOUTH CENTRAL","year":"2022","week":"3","label":"Arboviral diseases, Jamestown Canyon  virus disease","m1_flag":"-","m2":"0","m2_flag":"-","m3_flag":"-","m4_flag":"-","location2":"WEST SOUTH CENTRAL","sort_order":"20220300253"}
        ,{"states":"ARKANSAS","year":"2022","week":"3","label":"Arboviral diseases, Jamestown Canyon  virus disease","m1_flag":"-","m2":"0","m2_flag":"-","m3_flag":"-","m4_flag":"-","location1":"ARKANSAS","sort_order":"20220300254","geocode":{"type":"Point","coordinates":[-92.439162,34.899825]}}
        ,{"states":"LOUISIANA","year":"2022","week":"3","label":"Arboviral diseases, Jamestown Canyon  virus disease","m1_flag":"-","m2":"0","m2_flag":"-","m3_flag":"-","m4_flag":"-","location1":"LOUISIANA","sort_order":"20220300255","geocode":{"type":"Point","coordinates":[-91.840238,30.921314]}}
        ,{"states":"OKLAHOMA","year":"2022","week":"3","label":"Arboviral diseases, Jamestown Canyon  virus disease","m1_flag":"-","m2":"0","m2_flag":"-","m3_flag":"-","m4_flag":"-","location1":"OKLAHOMA","sort_order":"20220300256","geocode":{"type":"Point","coordinates":[-97.508297,35.583449]}}
        ,{"states":"TEXAS","year":"2022","week":"3","label":"Arboviral diseases, Jamestown Canyon  virus disease","m1_flag":"-","m2":"0","m2_flag":"-","m3_flag":"-","m4_flag":"-","location1":"TEXAS","sort_order":"20220300257","geocode":{"type":"Point","coordinates":[-99.317341,31.447238]}}
        ,{"states":"MOUNTAIN","year":"2022","week":"3","label":"Arboviral diseases, Jamestown Canyon  virus disease","m1_flag":"-","m2":"0","m2_flag":"-","m3_flag":"-","m4_flag":"-","location2":"MOUNTAIN","sort_order":"20220300258"}
        ,{"states":"ARIZONA","year":"2022","week":"3","label":"Arboviral diseases, Jamestown Canyon  virus disease","m1_flag":"-","m2":"0","m2_flag":"-","m3_flag":"-","m4_flag":"-","location1":"ARIZONA","sort_order":"20220300259","geocode":{"type":"Point","coordinates":[-111.664616,34.293239]}}
        ,{"states":"COLORADO","year":"2022","week":"3","label":"Arboviral diseases, Jamestown Canyon  virus disease","m1_flag":"-","m2":"0","m2_flag":"-","m3_flag":"-","m4_flag":"-","location1":"COLORADO","sort_order":"20220300260","geocode":{"type":"Point","coordinates":[-105.547832,38.998552]}}
        ,{"states":"IDAHO","year":"2022","week":"3","label":"Arboviral diseases, Jamestown Canyon  virus disease","m1_flag":"-","m2":"0","m2_flag":"-","m3_flag":"-","m4_flag":"-","location1":"IDAHO","sort_order":"20220300261","geocode":{"type":"Point","coordinates":[-114.659366,44.389073]}}
        ,{"states":"MONTANA","year":"2022","week":"3","label":"Arboviral diseases, Jamestown Canyon  virus disease","m1_flag":"-","m2":"0","m2_flag":"-","m3_flag":"-","m4_flag":"-","location1":"MONTANA","sort_order":"20220300262","geocode":{"type":"Point","coordinates":[-109.645127,47.033521]}}
        ,{"states":"NEVADA","year":"2022","week":"3","label":"Arboviral diseases, Jamestown Canyon  virus disease","m1_flag":"-","m2":"0","m2_flag":"-","m3_flag":"-","m4_flag":"-","location1":"NEVADA","sort_order":"20220300263","geocode":{"type":"Point","coordinates":[-114.916992,39.283294]}}
        ,{"states":"NEW MEXICO","year":"2022","week":"3","label":"Arboviral diseases, Jamestown Canyon  virus disease","m1_flag":"-","m2":"0","m2_flag":"-","m3_flag":"-","m4_flag":"-","location1":"NEW MEXICO","sort_order":"20220300264","geocode":{"type":"Point","coordinates":[-106.108388,34.421369]}}
        ,{"states":"UTAH","year":"2022","week":"3","label":"Arboviral diseases, Jamestown Canyon  virus disease","m1_flag":"-","m2":"0","m2_flag":"-","m3_flag":"-","m4_flag":"-","location1":"UTAH","sort_order":"20220300265","geocode":{"type":"Point","coordinates":[-111.678222,39.323779]}}
        ,{"states":"WYOMING","year":"2022","week":"3","label":"Arboviral diseases, Jamestown Canyon  virus disease","m1_flag":"-","m2":"0","m2_flag":"-","m3_flag":"-","m4_flag":"-","location1":"WYOMING","sort_order":"20220300266","geocode":{"type":"Point","coordinates":[-107.55145,42.999627]}}
        ,{"states":"PACIFIC","year":"2022","week":"3","label":"Arboviral diseases, Jamestown Canyon  virus disease","m1_flag":"-","m2":"0","m2_flag":"-","m3_flag":"-","m4_flag":"-","location2":"PACIFIC","sort_order":"20220300267"}
        ,{"states":"ALASKA","year":"2022","week":"3","label":"Arboviral diseases, Jamestown Canyon  virus disease","m1_flag":"-","m2":"0","m2_flag":"-","m3_flag":"-","m4_flag":"-","location1":"ALASKA","sort_order":"20220300268","geocode":{"type":"Point","coordinates":[-151.631889,63.631126]}}
        ,{"states":"CALIFORNIA","year":"2022","week":"3","label":"Arboviral diseases, Jamestown Canyon  virus disease","m1_flag":"-","m2":"0","m2_flag":"-","m3_flag":"-","m4_flag":"-","location1":"CALIFORNIA","sort_order":"20220300269","geocode":{"type":"Point","coordinates":[-119.662127,37.211164]}}
        ,{"states":"HAWAII","year":"2022","week":"3","label":"Arboviral diseases, Jamestown Canyon  virus disease","m1_flag":"-","m2":"0","m2_flag":"-","m3_flag":"-","m4_flag":"-","location1":"HAWAII","sort_order":"20220300270","geocode":{"type":"Point","coordinates":[-157.854309,21.361013]}}
        ,{"states":"OREGON","year":"2022","week":"3","label":"Arboviral diseases, Jamestown Canyon  virus disease","m1_flag":"-","m2":"0","m2_flag":"-","m3_flag":"-","m4_flag":"-","location1":"OREGON","sort_order":"20220300271","geocode":{"type":"Point","coordinates":[-120.605279,43.940449]}}
        ,{"states":"WASHINGTON","year":"2022","week":"3","label":"Arboviral diseases, Jamestown Canyon  virus disease","m1_flag":"-","m2":"0","m2_flag":"-","m3_flag":"-","m4_flag":"-","location1":"WASHINGTON","sort_order":"20220300272","geocode":{"type":"Point","coordinates":[-120.592492,47.411715]}}
        ,{"states":"US TERRITORIES","year":"2022","week":"3","label":"Arboviral diseases, Jamestown Canyon  virus disease","m1_flag":"-","m2":"0","m2_flag":"-","m3_flag":"-","m4_flag":"-","location2":"US TERRITORIES","sort_order":"20220300273"}
        ,{"states":"AMERICAN SAMOA","year":"2022","week":"3","label":"Arboviral diseases, Jamestown Canyon  virus disease","m1_flag":"-","m2":"0","m2_flag":"-","m3_flag":"-","m4_flag":"-","location1":"AMERICAN SAMOA","sort_order":"20220300274"}
        ,{"states":"NORTHERN MARIANA ISLANDS","year":"2022","week":"3","label":"Arboviral diseases, Jamestown Canyon  virus disease","m1_flag":"-","m2":"0","m2_flag":"-","m3_flag":"-","m4_flag":"-","location1":"NORTHERN MARIANA ISLANDS","sort_order":"20220300275","geocode":{"type":"Point","coordinates":[145.725693,15.1834]}}
        ,{"states":"GUAM","year":"2022","week":"3","label":"Arboviral diseases, Jamestown Canyon  virus disease","m1_flag":"-","m2":"0","m2_flag":"-","m3_flag":"-","m4_flag":"-","location1":"GUAM","sort_order":"20220300276","geocode":{"type":"Point","coordinates":[144.653198,13.3532]}}
        ,{"states":"PUERTO RICO","year":"2022","week":"3","label":"Arboviral diseases, Jamestown Canyon  virus disease","m1_flag":"-","m2":"0","m2_flag":"-","m3_flag":"-","m4_flag":"-","location1":"PUERTO RICO","sort_order":"20220300277","geocode":{"type":"Point","coordinates":[-66.414655,18.215692]}}
        ,{"states":"U.S. VIRGIN ISLANDS","year":"2022","week":"3","label":"Arboviral diseases, Jamestown Canyon  virus disease","m1_flag":"-","m2":"0","m2_flag":"-","m3_flag":"-","m4_flag":"-","location1":"U.S. VIRGIN ISLANDS","sort_order":"20220300278"}
        ,{"states":"NON-US RESIDENTS","year":"2022","week":"3","label":"Arboviral diseases, Jamestown Canyon  virus disease","m1_flag":"-","m2":"0","m2_flag":"-","m3_flag":"-","m4_flag":"-","location2":"NON-US RESIDENTS","sort_order":"20220300279"}
        ,{"states":"TOTAL","year":"2022","week":"3","label":"Arboviral diseases, Jamestown Canyon  virus disease","m1_flag":"-","m2":"3","m2_flag":"-","m3_flag":"-","m4_flag":"-","location2":"TOTAL","sort_order":"20220300280"}
        ,{"states":"US RESIDENTS","year":"2022","week":"3","label":"Arboviral diseases, La Crosse  virus disease","m1_flag":"-","m2":"5","m2_flag":"-","m3_flag":"-","m4_flag":"-","location2":"US RESIDENTS","sort_order":"20220300281"}
        ,{"states":"NEW ENGLAND","year":"2022","week":"3","label":"Arboviral diseases, La Crosse  virus disease","m1_flag":"-","m2":"0","m2_flag":"-","m3_flag":"-","m4_flag":"-","location2":"NEW ENGLAND","sort_order":"20220300282"}
        ,{"states":"CONNECTICUT","year":"2022","week":"3","label":"Arboviral diseases, La Crosse  virus disease","m1_flag":"-","m2":"0","m2_flag":"-","m3_flag":"-","m4_flag":"-","location1":"CONNECTICUT","sort_order":"20220300283","geocode":{"type":"Point","coordinates":[-72.738288,41.575155]}}
        ,{"states":"MAINE","year":"2022","week":"3","label":"Arboviral diseases, La Crosse  virus disease","m1_flag":"-","m2":"0","m2_flag":"-","m3_flag":"-","m4_flag":"-","location1":"MAINE","sort_order":"20220300284","geocode":{"type":"Point","coordinates":[-69.06137,45.117911]}}
        ,{"states":"MASSACHUSETTS","year":"2022","week":"3","label":"Arboviral diseases, La Crosse  virus disease","m1_flag":"-","m2":"0","m2_flag":"-","m3_flag":"-","m4_flag":"-","location1":"MASSACHUSETTS","sort_order":"20220300285","geocode":{"type":"Point","coordinates":[-71.481104,42.151077]}}
        ,{"states":"NEW HAMPSHIRE","year":"2022","week":"3","label":"Arboviral diseases, La Crosse  virus disease","m1_flag":"-","m2":"0","m2_flag":"-","m3_flag":"-","m4_flag":"-","location1":"NEW HAMPSHIRE","sort_order":"20220300286","geocode":{"type":"Point","coordinates":[-71.57139,43.680429]}}
        ,{"states":"RHODE ISLAND","year":"2022","week":"3","label":"Arboviral diseases, La Crosse  virus disease","m1_flag":"-","m2":"0","m2_flag":"-","m3_flag":"-","m4_flag":"-","location1":"RHODE ISLAND","sort_order":"20220300287","geocode":{"type":"Point","coordinates":[-71.534637,41.572574]}}
        ,{"states":"VERMONT","year":"2022","week":"3","label":"Arboviral diseases, La Crosse  virus disease","m1_flag":"-","m2":"0","m2_flag":"-","m3_flag":"-","m4_flag":"-","location1":"VERMONT","sort_order":"20220300288","geocode":{"type":"Point","coordinates":[-72.662695,44.075252]}}
        ,{"states":"MIDDLE ATLANTIC","year":"2022","week":"3","label":"Arboviral diseases, La Crosse  virus disease","m1_flag":"-","m2":"0","m2_flag":"-","m3_flag":"-","m4_flag":"-","location2":"MIDDLE ATLANTIC","sort_order":"20220300289"}
        ,{"states":"NEW JERSEY","year":"2022","week":"3","label":"Arboviral diseases, La Crosse  virus disease","m1_flag":"-","m2":"0","m2_flag":"-","m3_flag":"-","m4_flag":"-","location1":"NEW JERSEY","sort_order":"20220300290","geocode":{"type":"Point","coordinates":[-74.655514,40.110253]}}
        ,{"states":"NEW YORK","year":"2022","week":"3","label":"Arboviral diseases, La Crosse  virus disease","m1_flag":"-","m2":"0","m2_flag":"-","m3_flag":"-","m4_flag":"-","location1":"NEW YORK","sort_order":"20220300291","geocode":{"type":"Point","coordinates":[-75.59655,42.921241]}}
        ,{"states":"NEW YORK CITY","year":"2022","week":"3","label":"Arboviral diseases, La Crosse  virus disease","m1_flag":"-","m2":"0","m2_flag":"-","m3_flag":"-","m4_flag":"-","location1":"NEW YORK CITY","sort_order":"20220300292"}
        ,{"states":"PENNSYLVANIA","year":"2022","week":"3","label":"Arboviral diseases, La Crosse  virus disease","m1_flag":"-","m2":"0","m2_flag":"-","m3_flag":"-","m4_flag":"-","location1":"PENNSYLVANIA","sort_order":"20220300293","geocode":{"type":"Point","coordinates":[-77.838886,40.896694]}}
        ,{"states":"EAST NORTH CENTRAL","year":"2022","week":"3","label":"Arboviral diseases, La Crosse  virus disease","m1_flag":"-","m2":"4","m2_flag":"-","m3_flag":"-","m4_flag":"-","location2":"EAST NORTH CENTRAL","sort_order":"20220300294"}
        ,{"states":"ILLINOIS","year":"2022","week":"3","label":"Arboviral diseases, La Crosse  virus disease","m1_flag":"-","m2":"1","m2_flag":"-","m3_flag":"-","m4_flag":"-","location1":"ILLINOIS","sort_order":"20220300295","geocode":{"type":"Point","coordinates":[-89.148632,40.124144]}}
        ,{"states":"INDIANA","year":"2022","week":"3","label":"Arboviral diseases, La Crosse  virus disease","m1_flag":"-","m2":"1","m2_flag":"-","m3_flag":"-","m4_flag":"-","location1":"INDIANA","sort_order":"20220300296","geocode":{"type":"Point","coordinates":[-86.2818,39.919991]}}
        ,{"states":"MICHIGAN","year":"2022","week":"3","label":"Arboviral diseases, La Crosse  virus disease","m1_flag":"-","m2":"1","m2_flag":"-","m3_flag":"-","m4_flag":"-","location1":"MICHIGAN","sort_order":"20220300297","geocode":{"type":"Point","coordinates":[-85.730977,44.874798]}}
        ,{"states":"OHIO","year":"2022","week":"3","label":"Arboviral diseases, La Crosse  virus disease","m1_flag":"-","m2":"4","m2_flag":"-","m3_flag":"-","m4_flag":"-","location1":"OHIO","sort_order":"20220300298","geocode":{"type":"Point","coordinates":[-82.70936,40.415534]}}
        ,{"states":"WISCONSIN","year":"2022","week":"3","label":"Arboviral diseases, La Crosse  virus disease","m1_flag":"-","m2":"1","m2_flag":"-","m3_flag":"-","m4_flag":"-","location1":"WISCONSIN","sort_order":"20220300299","geocode":{"type":"Point","coordinates":[-89.732969,44.639954]}}
        ,{"states":"WEST NORTH CENTRAL","year":"2022","week":"3","label":"Arboviral diseases, La Crosse  virus disease","m1_flag":"-","m2":"0","m2_flag":"-","m3_flag":"-","m4_flag":"-","location2":"WEST NORTH CENTRAL","sort_order":"20220300300"}
        ,{"states":"IOWA","year":"2022","week":"3","label":"Arboviral diseases, La Crosse  virus disease","m1_flag":"-","m2":"0","m2_flag":"-","m3_flag":"-","m4_flag":"-","location1":"IOWA","sort_order":"20220300301","geocode":{"type":"Point","coordinates":[-93.500061,42.074659]}}
        ,{"states":"KANSAS","year":"2022","week":"3","label":"Arboviral diseases, La Crosse  virus disease","m1_flag":"-","m2":"0","m2_flag":"-","m3_flag":"-","m4_flag":"-","location1":"KANSAS","sort_order":"20220300302","geocode":{"type":"Point","coordinates":[-98.38018,38.484729]}}
        ,{"states":"MINNESOTA","year":"2022","week":"3","label":"Arboviral diseases, La Crosse  virus disease","m1_flag":"-","m2":"0","m2_flag":"-","m3_flag":"-","m4_flag":"-","location1":"MINNESOTA","sort_order":"20220300303","geocode":{"type":"Point","coordinates":[-94.198308,46.349153]}}
        ,{"states":"MISSOURI","year":"2022","week":"3","label":"Arboviral diseases, La Crosse  virus disease","m1_flag":"-","m2":"0","m2_flag":"-","m3_flag":"-","m4_flag":"-","location1":"MISSOURI","sort_order":"20220300304","geocode":{"type":"Point","coordinates":[-92.477244,38.3675]}}
        ,{"states":"NEBRASKA","year":"2022","week":"3","label":"Arboviral diseases, La Crosse  virus disease","m1_flag":"-","m2":"0","m2_flag":"-","m3_flag":"-","m4_flag":"-","location1":"NEBRASKA","sort_order":"20220300305","geocode":{"type":"Point","coordinates":[-99.810595,41.527099]}}
        ,{"states":"NORTH DAKOTA","year":"2022","week":"3","label":"Arboviral diseases, La Crosse  virus disease","m1_flag":"-","m2":"0","m2_flag":"-","m3_flag":"-","m4_flag":"-","location1":"NORTH DAKOTA","sort_order":"20220300306","geocode":{"type":"Point","coordinates":[-100.46931,47.446305]}}
        ,{"states":"SOUTH DAKOTA","year":"2022","week":"3","label":"Arboviral diseases, La Crosse  virus disease","m1_flag":"-","m2":"0","m2_flag":"-","m3_flag":"-","m4_flag":"-","location1":"SOUTH DAKOTA","sort_order":"20220300307","geocode":{"type":"Point","coordinates":[-100.230491,44.43614]}}
        ,{"states":"SOUTH ATLANTIC","year":"2022","week":"3","label":"Arboviral diseases, La Crosse  virus disease","m1_flag":"-","m2":"2","m2_flag":"-","m3_flag":"-","m4_flag":"-","location2":"SOUTH ATLANTIC","sort_order":"20220300308"}
        ,{"states":"DELAWARE","year":"2022","week":"3","label":"Arboviral diseases, La Crosse  virus disease","m1_flag":"-","m2":"0","m2_flag":"-","m3_flag":"-","m4_flag":"-","location1":"DELAWARE","sort_order":"20220300309","geocode":{"type":"Point","coordinates":[-75.452394,38.994926]}}
        ,{"states":"DISTRICT OF COLUMBIA","year":"2022","week":"3","label":"Arboviral diseases, La Crosse  virus disease","m1_flag":"-","m2":"0","m2_flag":"-","m3_flag":"-","m4_flag":"-","location1":"DISTRICT OF COLUMBIA","sort_order":"20220300310","geocode":{"type":"Point","coordinates":[-77.016275,38.904785]}}
        ,{"states":"FLORIDA","year":"2022","week":"3","label":"Arboviral diseases, La Crosse  virus disease","m1_flag":"-","m2":"0","m2_flag":"-","m3_flag":"-","m4_flag":"-","location1":"FLORIDA","sort_order":"20220300311","geocode":{"type":"Point","coordinates":[-82.420978,28.260731]}}
        ,{"states":"GEORGIA","year":"2022","week":"3","label":"Arboviral diseases, La Crosse  virus disease","m1_flag":"-","m2":"0","m2_flag":"-","m3_flag":"-","m4_flag":"-","location1":"GEORGIA","sort_order":"20220300312","geocode":{"type":"Point","coordinates":[-83.426574,32.638481]}}
        ,{"states":"MARYLAND","year":"2022","week":"3","label":"Arboviral diseases, La Crosse  virus disease","m1_flag":"-","m2":"0","m2_flag":"-","m3_flag":"-","m4_flag":"-","location1":"MARYLAND","sort_order":"20220300313","geocode":{"type":"Point","coordinates":[-76.687282,38.946466]}}
        ,{"states":"NORTH CAROLINA","year":"2022","week":"3","label":"Arboviral diseases, La Crosse  virus disease","m1_flag":"-","m2":"2","m2_flag":"-","m3_flag":"-","m4_flag":"-","location1":"NORTH CAROLINA","sort_order":"20220300314","geocode":{"type":"Point","coordinates":[-79.130883,35.52603]}}
        ,{"states":"SOUTH CAROLINA","year":"2022","week":"3","label":"Arboviral diseases, La Crosse  virus disease","m1_flag":"-","m2":"0","m2_flag":"-","m3_flag":"-","m4_flag":"-","location1":"SOUTH CAROLINA","sort_order":"20220300315","geocode":{"type":"Point","coordinates":[-80.864614,33.878572]}}
        ,{"states":"VIRGINIA","year":"2022","week":"3","label":"Arboviral diseases, La Crosse  virus disease","m1_flag":"-","m2":"0","m2_flag":"-","m3_flag":"-","m4_flag":"-","location1":"VIRGINIA","sort_order":"20220300316","geocode":{"type":"Point","coordinates":[-78.666382,37.510861]}}
        ,{"states":"WEST VIRGINIA","year":"2022","week":"3","label":"Arboviral diseases, La Crosse  virus disease","m1_flag":"-","m2":"0","m2_flag":"-","m3_flag":"-","m4_flag":"-","location1":"WEST VIRGINIA","sort_order":"20220300317","geocode":{"type":"Point","coordinates":[-80.613729,38.642579]}}
        ,{"states":"EAST SOUTH CENTRAL","year":"2022","week":"3","label":"Arboviral diseases, La Crosse  virus disease","m1_flag":"-","m2":"2","m2_flag":"-","m3_flag":"-","m4_flag":"-","location2":"EAST SOUTH CENTRAL","sort_order":"20220300318"}
        ,{"states":"ALABAMA","year":"2022","week":"3","label":"Arboviral diseases, La Crosse  virus disease","m1_flag":"-","m2":"0","m2_flag":"-","m3_flag":"-","m4_flag":"-","location1":"ALABAMA","sort_order":"20220300319","geocode":{"type":"Point","coordinates":[-86.844516,32.756889]}}
        ,{"states":"KENTUCKY","year":"2022","week":"3","label":"Arboviral diseases, La Crosse  virus disease","m1_flag":"-","m2":"0","m2_flag":"-","m3_flag":"-","m4_flag":"-","location1":"KENTUCKY","sort_order":"20220300320","geocode":{"type":"Point","coordinates":[-85.290484,37.526683]}}
        ,{"states":"MISSISSIPPI","year":"2022","week":"3","label":"Arboviral diseases, La Crosse  virus disease","m1_flag":"-","m2":"0","m2_flag":"-","m3_flag":"-","m4_flag":"-","location1":"MISSISSIPPI","sort_order":"20220300321","geocode":{"type":"Point","coordinates":[-89.65344,32.713378]}}
        ,{"states":"TENNESSEE","year":"2022","week":"3","label":"Arboviral diseases, La Crosse  virus disease","m1_flag":"-","m2":"2","m2_flag":"-","m3_flag":"-","m4_flag":"-","location1":"TENNESSEE","sort_order":"20220300322","geocode":{"type":"Point","coordinates":[-86.343226,35.842998]}}
        ,{"states":"WEST SOUTH CENTRAL","year":"2022","week":"3","label":"Arboviral diseases, La Crosse  virus disease","m1_flag":"-","m2":"0","m2_flag":"-","m3_flag":"-","m4_flag":"-","location2":"WEST SOUTH CENTRAL","sort_order":"20220300323"}
        ,{"states":"ARKANSAS","year":"2022","week":"3","label":"Arboviral diseases, La Crosse  virus disease","m1_flag":"-","m2":"0","m2_flag":"-","m3_flag":"-","m4_flag":"-","location1":"ARKANSAS","sort_order":"20220300324","geocode":{"type":"Point","coordinates":[-92.439162,34.899825]}}
        ,{"states":"LOUISIANA","year":"2022","week":"3","label":"Arboviral diseases, La Crosse  virus disease","m1_flag":"-","m2":"0","m2_flag":"-","m3_flag":"-","m4_flag":"-","location1":"LOUISIANA","sort_order":"20220300325","geocode":{"type":"Point","coordinates":[-91.840238,30.921314]}}
        ,{"states":"OKLAHOMA","year":"2022","week":"3","label":"Arboviral diseases, La Crosse  virus disease","m1_flag":"-","m2":"0","m2_flag":"-","m3_flag":"-","m4_flag":"-","location1":"OKLAHOMA","sort_order":"20220300326","geocode":{"type":"Point","coordinates":[-97.508297,35.583449]}}
        ,{"states":"TEXAS","year":"2022","week":"3","label":"Arboviral diseases, La Crosse  virus disease","m1_flag":"-","m2":"0","m2_flag":"-","m3_flag":"-","m4_flag":"-","location1":"TEXAS","sort_order":"20220300327","geocode":{"type":"Point","coordinates":[-99.317341,31.447238]}}
        ,{"states":"MOUNTAIN","year":"2022","week":"3","label":"Arboviral diseases, La Crosse  virus disease","m1_flag":"-","m2":"0","m2_flag":"-","m3_flag":"-","m4_flag":"-","location2":"MOUNTAIN","sort_order":"20220300328"}
        ,{"states":"ARIZONA","year":"2022","week":"3","label":"Arboviral diseases, La Crosse  virus disease","m1_flag":"-","m2":"0","m2_flag":"-","m3_flag":"-","m4_flag":"-","location1":"ARIZONA","sort_order":"20220300329","geocode":{"type":"Point","coordinates":[-111.664616,34.293239]}}
        ,{"states":"COLORADO","year":"2022","week":"3","label":"Arboviral diseases, La Crosse  virus disease","m1_flag":"-","m2":"0","m2_flag":"-","m3_flag":"-","m4_flag":"-","location1":"COLORADO","sort_order":"20220300330","geocode":{"type":"Point","coordinates":[-105.547832,38.998552]}}
        ,{"states":"IDAHO","year":"2022","week":"3","label":"Arboviral diseases, La Crosse  virus disease","m1_flag":"-","m2":"0","m2_flag":"-","m3_flag":"-","m4_flag":"-","location1":"IDAHO","sort_order":"20220300331","geocode":{"type":"Point","coordinates":[-114.659366,44.389073]}}
        ,{"states":"MONTANA","year":"2022","week":"3","label":"Arboviral diseases, La Crosse  virus disease","m1_flag":"-","m2":"0","m2_flag":"-","m3_flag":"-","m4_flag":"-","location1":"MONTANA","sort_order":"20220300332","geocode":{"type":"Point","coordinates":[-109.645127,47.033521]}}
        ,{"states":"NEVADA","year":"2022","week":"3","label":"Arboviral diseases, La Crosse  virus disease","m1_flag":"-","m2":"0","m2_flag":"-","m3_flag":"-","m4_flag":"-","location1":"NEVADA","sort_order":"20220300333","geocode":{"type":"Point","coordinates":[-114.916992,39.283294]}}
        ,{"states":"NEW MEXICO","year":"2022","week":"3","label":"Arboviral diseases, La Crosse  virus disease","m1_flag":"-","m2":"0","m2_flag":"-","m3_flag":"-","m4_flag":"-","location1":"NEW MEXICO","sort_order":"20220300334","geocode":{"type":"Point","coordinates":[-106.108388,34.421369]}}
        ,{"states":"UTAH","year":"2022","week":"3","label":"Arboviral diseases, La Crosse  virus disease","m1_flag":"-","m2":"0","m2_flag":"-","m3_flag":"-","m4_flag":"-","location1":"UTAH","sort_order":"20220300335","geocode":{"type":"Point","coordinates":[-111.678222,39.323779]}}
        ,{"states":"WYOMING","year":"2022","week":"3","label":"Arboviral diseases, La Crosse  virus disease","m1_flag":"-","m2":"0","m2_flag":"-","m3_flag":"-","m4_flag":"-","location1":"WYOMING","sort_order":"20220300336","geocode":{"type":"Point","coordinates":[-107.55145,42.999627]}}
        ,{"states":"PACIFIC","year":"2022","week":"3","label":"Arboviral diseases, La Crosse  virus disease","m1_flag":"-","m2":"0","m2_flag":"-","m3_flag":"-","m4_flag":"-","location2":"PACIFIC","sort_order":"20220300337"}
        ,{"states":"ALASKA","year":"2022","week":"3","label":"Arboviral diseases, La Crosse  virus disease","m1_flag":"-","m2":"0","m2_flag":"-","m3_flag":"-","m4_flag":"-","location1":"ALASKA","sort_order":"20220300338","geocode":{"type":"Point","coordinates":[-151.631889,63.631126]}}
        ,{"states":"CALIFORNIA","year":"2022","week":"3","label":"Arboviral diseases, La Crosse  virus disease","m1_flag":"-","m2":"0","m2_flag":"-","m3_flag":"-","m4_flag":"-","location1":"CALIFORNIA","sort_order":"20220300339","geocode":{"type":"Point","coordinates":[-119.662127,37.211164]}}
        ,{"states":"HAWAII","year":"2022","week":"3","label":"Arboviral diseases, La Crosse  virus disease","m1_flag":"-","m2":"0","m2_flag":"-","m3_flag":"-","m4_flag":"-","location1":"HAWAII","sort_order":"20220300340","geocode":{"type":"Point","coordinates":[-157.854309,21.361013]}}
        ,{"states":"OREGON","year":"2022","week":"3","label":"Arboviral diseases, La Crosse  virus disease","m1_flag":"-","m2":"0","m2_flag":"-","m3_flag":"-","m4_flag":"-","location1":"OREGON","sort_order":"20220300341","geocode":{"type":"Point","coordinates":[-120.605279,43.940449]}}
        ,{"states":"WASHINGTON","year":"2022","week":"3","label":"Arboviral diseases, La Crosse  virus disease","m1_flag":"-","m2":"0","m2_flag":"-","m3_flag":"-","m4_flag":"-","location1":"WASHINGTON","sort_order":"20220300342","geocode":{"type":"Point","coordinates":[-120.592492,47.411715]}}
        ,{"states":"US TERRITORIES","year":"2022","week":"3","label":"Arboviral diseases, La Crosse  virus disease","m1_flag":"-","m2":"0","m2_flag":"-","m3_flag":"-","m4_flag":"-","location2":"US TERRITORIES","sort_order":"20220300343"}
        ,{"states":"AMERICAN SAMOA","year":"2022","week":"3","label":"Arboviral diseases, La Crosse  virus disease","m1_flag":"-","m2":"0","m2_flag":"-","m3_flag":"-","m4_flag":"-","location1":"AMERICAN SAMOA","sort_order":"20220300344"}
        ,{"states":"NORTHERN MARIANA ISLANDS","year":"2022","week":"3","label":"Arboviral diseases, La Crosse  virus disease","m1_flag":"-","m2":"0","m2_flag":"-","m3_flag":"-","m4_flag":"-","location1":"NORTHERN MARIANA ISLANDS","sort_order":"20220300345","geocode":{"type":"Point","coordinates":[145.725693,15.1834]}}
        ,{"states":"GUAM","year":"2022","week":"3","label":"Arboviral diseases, La Crosse  virus disease","m1_flag":"-","m2":"0","m2_flag":"-","m3_flag":"-","m4_flag":"-","location1":"GUAM","sort_order":"20220300346","geocode":{"type":"Point","coordinates":[144.653198,13.3532]}}
        ,{"states":"PUERTO RICO","year":"2022","week":"3","label":"Arboviral diseases, La Crosse  virus disease","m1_flag":"-","m2":"0","m2_flag":"-","m3_flag":"-","m4_flag":"-","location1":"PUERTO RICO","sort_order":"20220300347","geocode":{"type":"Point","coordinates":[-66.414655,18.215692]}}
        ,{"states":"U.S. VIRGIN ISLANDS","year":"2022","week":"3","label":"Arboviral diseases, La Crosse  virus disease","m1_flag":"-","m2":"0","m2_flag":"-","m3_flag":"-","m4_flag":"-","location1":"U.S. VIRGIN ISLANDS","sort_order":"20220300348"}
        ,{"states":"NON-US RESIDENTS","year":"2022","week":"3","label":"Arboviral diseases, La Crosse  virus disease","m1_flag":"-","m2":"0","m2_flag":"-","m3_flag":"-","m4_flag":"-","location2":"NON-US RESIDENTS","sort_order":"20220300349"}
        ,{"states":"TOTAL","year":"2022","week":"3","label":"Arboviral diseases, La Crosse  virus disease","m1_flag":"-","m2":"5","m2_flag":"-","m3_flag":"-","m4_flag":"-","location2":"TOTAL","sort_order":"20220300350"}
        ,{"states":"US RESIDENTS","year":"2022","week":"3","label":"Arboviral diseases, Powassan virus disease","m1_flag":"-","m2":"2","m2_flag":"-","m3_flag":"-","m4_flag":"-","location2":"US RESIDENTS","sort_order":"20220300351"}
        ,{"states":"NEW ENGLAND","year":"2022","week":"3","label":"Arboviral diseases, Powassan virus disease","m1_flag":"-","m2":"2","m2_flag":"-","m3_flag":"-","m4_flag":"-","location2":"NEW ENGLAND","sort_order":"20220300352"}
        ,{"states":"CONNECTICUT","year":"2022","week":"3","label":"Arboviral diseases, Powassan virus disease","m1_flag":"-","m2":"1","m2_flag":"-","m3_flag":"-","m4_flag":"-","location1":"CONNECTICUT","sort_order":"20220300353","geocode":{"type":"Point","coordinates":[-72.738288,41.575155]}}
        ,{"states":"MAINE","year":"2022","week":"3","label":"Arboviral diseases, Powassan virus disease","m1_flag":"-","m2":"2","m2_flag":"-","m3_flag":"-","m4_flag":"-","location1":"MAINE","sort_order":"20220300354","geocode":{"type":"Point","coordinates":[-69.06137,45.117911]}}
