---
http_interactions:
- request:
    method: get
    uri: https://data.cdc.gov/resource/x9gk-5huc.json?week=2
    body:
      encoding: US-ASCII
      string: ''
    headers:
      User-Agent:
      - Faraday v2.7.2
      Accept-Encoding:
      - gzip;q=1.0,deflate;q=0.6,identity;q=0.3
      Accept:
      - "*/*"
  response:
    status:
      code: 200
      message: OK
    headers:
      Server:
      - nginx
      Date:
      - Tue, 24 Jan 2023 21:25:49 GMT
      Content-Type:
      - application/json;charset=utf-8
      Transfer-Encoding:
      - chunked
      Connection:
      - keep-alive
      Access-Control-Allow-Origin:
      - "*"
      Etag:
      - '"YWxwaGEuMzA3NTM3XzVfMTY5YzZ0V2hXbnlEWWlzQU85UGp2MTgzNVlad1pN---gzippIfIBW8tphWnyH7VGSNTBlbyw5A--gzip--gzip"'
      X-Soda2-Fields:
      - '["states","year","week","label","m1","m1_flag","m2","m2_flag","m3","m3_flag","m4","m4_flag","location1","location2","sort_order","geocode"]'
      X-Soda2-Types:
      - '["text","text","number","text","number","text","number","text","number","text","number","text","text","text","text","point"]'
      X-Soda2-Data-Out-Of-Date:
      - 'false'
      X-Soda2-Truth-Last-Modified:
      - Thu, 19 Jan 2023 21:55:39 GMT
      X-Soda2-Secondary-Last-Modified:
      - Thu, 19 Jan 2023 21:55:39 GMT
      Last-Modified:
      - Thu, 19 Jan 2023 21:55:39 GMT
      Vary:
      - Accept-Encoding
      Age:
      - '0'
      X-Socrata-Region:
      - aws-us-east-1-fedramp-prod
      Strict-Transport-Security:
      - max-age=31536000; includeSubDomains
      X-Socrata-Requestid:
      - 7404567cab2a38cd4c2b6018040e5771
    body:
      encoding: ASCII-8BIT
      string: |
        [{"states":"US RESIDENTS","year":"2022","week":"2","label":"Anthrax","m1_flag":"-","m2":"0","m2_flag":"-","m3_flag":"-","m4_flag":"-","location2":"US RESIDENTS","sort_order":"20220200001"}
        ,{"states":"NEW ENGLAND","year":"2022","week":"2","label":"Anthrax","m1_flag":"-","m2":"0","m2_flag":"-","m3_flag":"-","m4_flag":"-","location2":"NEW ENGLAND","sort_order":"20220200002"}
        ,{"states":"CONNECTICUT","year":"2022","week":"2","label":"Anthrax","m1_flag":"-","m2":"0","m2_flag":"-","m3_flag":"-","m4_flag":"-","location1":"CONNECTICUT","sort_order":"20220200003","geocode":{"type":"Point","coordinates":[-72.738288,41.575155]}}
        ,{"states":"MAINE","year":"2022","week":"2","label":"Anthrax","m1_flag":"-","m2":"0","m2_flag":"-","m3_flag":"-","m4_flag":"-","location1":"MAINE","sort_order":"20220200004","geocode":{"type":"Point","coordinates":[-69.06137,45.117911]}}
        ,{"states":"MASSACHUSETTS","year":"2022","week":"2","label":"Anthrax","m1_flag":"-","m2":"0","m2_flag":"-","m3_flag":"-","m4_flag":"-","location1":"MASSACHUSETTS","sort_order":"20220200005","geocode":{"type":"Point","coordinates":[-71.481104,42.151077]}}
        ,{"states":"NEW HAMPSHIRE","year":"2022","week":"2","label":"Anthrax","m1_flag":"-","m2":"0","m2_flag":"-","m3_flag":"-","m4_flag":"-","location1":"NEW HAMPSHIRE","sort_order":"20220200006","geocode":{"type":"Point","coordinates":[-71.57139,43.680429]}}
        ,{"states":"RHODE ISLAND","year":"2022","week":"2","label":"Anthrax","m1_flag":"-","m2":"0","m2_flag":"-","m3_flag":"-","m4_flag":"-","location1":"RHODE ISLAND","sort_order":"20220200007","geocode":{"type":"Point","coordinates":[-71.534637,41.572574]}}
        ,{"states":"VERMONT","year":"2022","week":"2","label":"Anthrax","m1_flag":"-","m2":"0","m2_flag":"-","m3_flag":"-","m4_flag":"-","location1":"VERMONT","sort_order":"20220200008","geocode":{"type":"Point","coordinates":[-72.662695,44.075252]}}
        ,{"states":"MIDDLE ATLANTIC","year":"2022","week":"2","label":"Anthrax","m1_flag":"-","m2":"0","m2_flag":"-","m3_flag":"-","m4_flag":"-","location2":"MIDDLE ATLANTIC","sort_order":"20220200009"}
        ,{"states":"NEW JERSEY","year":"2022","week":"2","label":"Anthrax","m1_flag":"-","m2":"0","m2_flag":"-","m3_flag":"-","m4_flag":"-","location1":"NEW JERSEY","sort_order":"20220200010","geocode":{"type":"Point","coordinates":[-74.655514,40.110253]}}
        ,{"states":"NEW YORK","year":"2022","week":"2","label":"Anthrax","m1_flag":"-","m2":"0","m2_flag":"-","m3_flag":"-","m4_flag":"-","location1":"NEW YORK","sort_order":"20220200011","geocode":{"type":"Point","coordinates":[-75.59655,42.921241]}}
        ,{"states":"NEW YORK CITY","year":"2022","week":"2","label":"Anthrax","m1_flag":"-","m2":"0","m2_flag":"-","m3_flag":"-","m4_flag":"-","location1":"NEW YORK CITY","sort_order":"20220200012"}
        ,{"states":"PENNSYLVANIA","year":"2022","week":"2","label":"Anthrax","m1_flag":"-","m2":"0","m2_flag":"-","m3_flag":"-","m4_flag":"-","location1":"PENNSYLVANIA","sort_order":"20220200013","geocode":{"type":"Point","coordinates":[-77.838886,40.896694]}}
        ,{"states":"EAST NORTH CENTRAL","year":"2022","week":"2","label":"Anthrax","m1_flag":"-","m2":"0","m2_flag":"-","m3_flag":"-","m4_flag":"-","location2":"EAST NORTH CENTRAL","sort_order":"20220200014"}
        ,{"states":"ILLINOIS","year":"2022","week":"2","label":"Anthrax","m1_flag":"-","m2":"0","m2_flag":"-","m3_flag":"-","m4_flag":"-","location1":"ILLINOIS","sort_order":"20220200015","geocode":{"type":"Point","coordinates":[-89.148632,40.124144]}}
        ,{"states":"INDIANA","year":"2022","week":"2","label":"Anthrax","m1_flag":"-","m2":"0","m2_flag":"-","m3_flag":"-","m4_flag":"-","location1":"INDIANA","sort_order":"20220200016","geocode":{"type":"Point","coordinates":[-86.2818,39.919991]}}
        ,{"states":"MICHIGAN","year":"2022","week":"2","label":"Anthrax","m1_flag":"-","m2":"0","m2_flag":"-","m3_flag":"-","m4_flag":"-","location1":"MICHIGAN","sort_order":"20220200017","geocode":{"type":"Point","coordinates":[-85.730977,44.874798]}}
        ,{"states":"OHIO","year":"2022","week":"2","label":"Anthrax","m1_flag":"-","m2":"0","m2_flag":"-","m3_flag":"-","m4_flag":"-","location1":"OHIO","sort_order":"20220200018","geocode":{"type":"Point","coordinates":[-82.70936,40.415534]}}
        ,{"states":"WISCONSIN","year":"2022","week":"2","label":"Anthrax","m1_flag":"-","m2":"0","m2_flag":"-","m3_flag":"-","m4_flag":"-","location1":"WISCONSIN","sort_order":"20220200019","geocode":{"type":"Point","coordinates":[-89.732969,44.639954]}}
        ,{"states":"WEST NORTH CENTRAL","year":"2022","week":"2","label":"Anthrax","m1_flag":"-","m2":"0","m2_flag":"-","m3_flag":"-","m4_flag":"-","location2":"WEST NORTH CENTRAL","sort_order":"20220200020"}
        ,{"states":"IOWA","year":"2022","week":"2","label":"Anthrax","m1_flag":"-","m2":"0","m2_flag":"-","m3_flag":"-","m4_flag":"-","location1":"IOWA","sort_order":"20220200021","geocode":{"type":"Point","coordinates":[-93.500061,42.074659]}}
        ,{"states":"KANSAS","year":"2022","week":"2","label":"Anthrax","m1_flag":"-","m2":"0","m2_flag":"-","m3_flag":"-","m4_flag":"-","location1":"KANSAS","sort_order":"20220200022","geocode":{"type":"Point","coordinates":[-98.38018,38.484729]}}
        ,{"states":"MINNESOTA","year":"2022","week":"2","label":"Anthrax","m1_flag":"-","m2":"0","m2_flag":"-","m3_flag":"-","m4_flag":"-","location1":"MINNESOTA","sort_order":"20220200023","geocode":{"type":"Point","coordinates":[-94.198308,46.349153]}}
        ,{"states":"MISSOURI","year":"2022","week":"2","label":"Anthrax","m1_flag":"-","m2":"0","m2_flag":"-","m3_flag":"-","m4_flag":"-","location1":"MISSOURI","sort_order":"20220200024","geocode":{"type":"Point","coordinates":[-92.477244,38.3675]}}
        ,{"states":"NEBRASKA","year":"2022","week":"2","label":"Anthrax","m1_flag":"-","m2":"0","m2_flag":"-","m3_flag":"-","m4_flag":"-","location1":"NEBRASKA","sort_order":"20220200025","geocode":{"type":"Point","coordinates":[-99.810595,41.527099]}}
        ,{"states":"NORTH DAKOTA","year":"2022","week":"2","label":"Anthrax","m1_flag":"-","m2":"0","m2_flag":"-","m3_flag":"-","m4_flag":"-","location1":"NORTH DAKOTA","sort_order":"20220200026","geocode":{"type":"Point","coordinates":[-100.46931,47.446305]}}
        ,{"states":"SOUTH DAKOTA","year":"2022","week":"2","label":"Anthrax","m1_flag":"-","m2":"0","m2_flag":"-","m3_flag":"-","m4_flag":"-","location1":"SOUTH DAKOTA","sort_order":"20220200027","geocode":{"type":"Point","coordinates":[-100.230491,44.43614]}}
        ,{"states":"SOUTH ATLANTIC","year":"2022","week":"2","label":"Anthrax","m1_flag":"-","m2":"0","m2_flag":"-","m3_flag":"-","m4_flag":"-","location2":"SOUTH ATLANTIC","sort_order":"20220200028"}
        ,{"states":"DELAWARE","year":"2022","week":"2","label":"Anthrax","m1_flag":"-","m2":"0","m2_flag":"-","m3_flag":"-","m4_flag":"-","location1":"DELAWARE","sort_order":"20220200029","geocode":{"type":"Point","coordinates":[-75.452394,38.994926]}}
        ,{"states":"DISTRICT OF COLUMBIA","year":"2022","week":"2","label":"Anthrax","m1_flag":"-","m2":"0","m2_flag":"-","m3_flag":"-","m4_flag":"-","location1":"DISTRICT OF COLUMBIA","sort_order":"20220200030","geocode":{"type":"Point","coordinates":[-77.016275,38.904785]}}
        ,{"states":"FLORIDA","year":"2022","week":"2","label":"Anthrax","m1_flag":"-","m2":"0","m2_flag":"-","m3_flag":"-","m4_flag":"-","location1":"FLORIDA","sort_order":"20220200031","geocode":{"type":"Point","coordinates":[-82.420978,28.260731]}}
        ,{"states":"GEORGIA","year":"2022","week":"2","label":"Anthrax","m1_flag":"-","m2":"0","m2_flag":"-","m3_flag":"-","m4_flag":"-","location1":"GEORGIA","sort_order":"20220200032","geocode":{"type":"Point","coordinates":[-83.426574,32.638481]}}
        ,{"states":"MARYLAND","year":"2022","week":"2","label":"Anthrax","m1_flag":"-","m2":"0","m2_flag":"-","m3_flag":"-","m4_flag":"-","location1":"MARYLAND","sort_order":"20220200033","geocode":{"type":"Point","coordinates":[-76.687282,38.946466]}}
        ,{"states":"NORTH CAROLINA","year":"2022","week":"2","label":"Anthrax","m1_flag":"-","m2":"0","m2_flag":"-","m3_flag":"-","m4_flag":"-","location1":"NORTH CAROLINA","sort_order":"20220200034","geocode":{"type":"Point","coordinates":[-79.130883,35.52603]}}
        ,{"states":"SOUTH CAROLINA","year":"2022","week":"2","label":"Anthrax","m1_flag":"-","m2":"0","m2_flag":"-","m3_flag":"-","m4_flag":"-","location1":"SOUTH CAROLINA","sort_order":"20220200035","geocode":{"type":"Point","coordinates":[-80.864614,33.878572]}}
        ,{"states":"VIRGINIA","year":"2022","week":"2","label":"Anthrax","m1_flag":"-","m2":"0","m2_flag":"-","m3_flag":"-","m4_flag":"-","location1":"VIRGINIA","sort_order":"20220200036","geocode":{"type":"Point","coordinates":[-78.666382,37.510861]}}
        ,{"states":"WEST VIRGINIA","year":"2022","week":"2","label":"Anthrax","m1_flag":"-","m2":"0","m2_flag":"-","m3_flag":"-","m4_flag":"-","location1":"WEST VIRGINIA","sort_order":"20220200037","geocode":{"type":"Point","coordinates":[-80.613729,38.642579]}}
        ,{"states":"EAST SOUTH CENTRAL","year":"2022","week":"2","label":"Anthrax","m1_flag":"-","m2":"0","m2_flag":"-","m3_flag":"-","m4_flag":"-","location2":"EAST SOUTH CENTRAL","sort_order":"20220200038"}
        ,{"states":"ALABAMA","year":"2022","week":"2","label":"Anthrax","m1_flag":"-","m2":"0","m2_flag":"-","m3_flag":"-","m4_flag":"-","location1":"ALABAMA","sort_order":"20220200039","geocode":{"type":"Point","coordinates":[-86.844516,32.756889]}}
        ,{"states":"KENTUCKY","year":"2022","week":"2","label":"Anthrax","m1_flag":"-","m2":"0","m2_flag":"-","m3_flag":"-","m4_flag":"-","location1":"KENTUCKY","sort_order":"20220200040","geocode":{"type":"Point","coordinates":[-85.290484,37.526683]}}
        ,{"states":"MISSISSIPPI","year":"2022","week":"2","label":"Anthrax","m1_flag":"-","m2":"0","m2_flag":"-","m3_flag":"-","m4_flag":"-","location1":"MISSISSIPPI","sort_order":"20220200041","geocode":{"type":"Point","coordinates":[-89.65344,32.713378]}}
        ,{"states":"TENNESSEE","year":"2022","week":"2","label":"Anthrax","m1_flag":"-","m2":"0","m2_flag":"-","m3_flag":"-","m4_flag":"-","location1":"TENNESSEE","sort_order":"20220200042","geocode":{"type":"Point","coordinates":[-86.343226,35.842998]}}
        ,{"states":"WEST SOUTH CENTRAL","year":"2022","week":"2","label":"Anthrax","m1_flag":"-","m2":"0","m2_flag":"-","m3_flag":"-","m4_flag":"-","location2":"WEST SOUTH CENTRAL","sort_order":"20220200043"}
        ,{"states":"ARKANSAS","year":"2022","week":"2","label":"Anthrax","m1_flag":"-","m2":"0","m2_flag":"-","m3_flag":"-","m4_flag":"-","location1":"ARKANSAS","sort_order":"20220200044","geocode":{"type":"Point","coordinates":[-92.439162,34.899825]}}
        ,{"states":"LOUISIANA","year":"2022","week":"2","label":"Anthrax","m1_flag":"-","m2":"0","m2_flag":"-","m3_flag":"-","m4_flag":"-","location1":"LOUISIANA","sort_order":"20220200045","geocode":{"type":"Point","coordinates":[-91.840238,30.921314]}}
        ,{"states":"OKLAHOMA","year":"2022","week":"2","label":"Anthrax","m1_flag":"-","m2":"0","m2_flag":"-","m3_flag":"-","m4_flag":"-","location1":"OKLAHOMA","sort_order":"20220200046","geocode":{"type":"Point","coordinates":[-97.508297,35.583449]}}
        ,{"states":"TEXAS","year":"2022","week":"2","label":"Anthrax","m1_flag":"-","m2":"0","m2_flag":"-","m3_flag":"-","m4_flag":"-","location1":"TEXAS","sort_order":"20220200047","geocode":{"type":"Point","coordinates":[-99.317341,31.447238]}}
        ,{"states":"MOUNTAIN","year":"2022","week":"2","label":"Anthrax","m1_flag":"-","m2":"0","m2_flag":"-","m3_flag":"-","m4_flag":"-","location2":"MOUNTAIN","sort_order":"20220200048"}
        ,{"states":"ARIZONA","year":"2022","week":"2","label":"Anthrax","m1_flag":"-","m2":"0","m2_flag":"-","m3_flag":"-","m4_flag":"-","location1":"ARIZONA","sort_order":"20220200049","geocode":{"type":"Point","coordinates":[-111.664616,34.293239]}}
        ,{"states":"COLORADO","year":"2022","week":"2","label":"Anthrax","m1_flag":"-","m2":"0","m2_flag":"-","m3_flag":"-","m4_flag":"-","location1":"COLORADO","sort_order":"20220200050","geocode":{"type":"Point","coordinates":[-105.547832,38.998552]}}
        ,{"states":"IDAHO","year":"2022","week":"2","label":"Anthrax","m1_flag":"-","m2":"0","m2_flag":"-","m3_flag":"-","m4_flag":"-","location1":"IDAHO","sort_order":"20220200051","geocode":{"type":"Point","coordinates":[-114.659366,44.389073]}}
        ,{"states":"MONTANA","year":"2022","week":"2","label":"Anthrax","m1_flag":"-","m2":"0","m2_flag":"-","m3_flag":"-","m4_flag":"-","location1":"MONTANA","sort_order":"20220200052","geocode":{"type":"Point","coordinates":[-109.645127,47.033521]}}
        ,{"states":"NEVADA","year":"2022","week":"2","label":"Anthrax","m1_flag":"-","m2":"0","m2_flag":"-","m3_flag":"-","m4_flag":"-","location1":"NEVADA","sort_order":"20220200053","geocode":{"type":"Point","coordinates":[-114.916992,39.283294]}}
        ,{"states":"NEW MEXICO","year":"2022","week":"2","label":"Anthrax","m1_flag":"-","m2":"0","m2_flag":"-","m3_flag":"-","m4_flag":"-","location1":"NEW MEXICO","sort_order":"20220200054","geocode":{"type":"Point","coordinates":[-106.108388,34.421369]}}
        ,{"states":"UTAH","year":"2022","week":"2","label":"Anthrax","m1_flag":"-","m2":"0","m2_flag":"-","m3_flag":"-","m4_flag":"-","location1":"UTAH","sort_order":"20220200055","geocode":{"type":"Point","coordinates":[-111.678222,39.323779]}}
        ,{"states":"WYOMING","year":"2022","week":"2","label":"Anthrax","m1_flag":"-","m2":"0","m2_flag":"-","m3_flag":"-","m4_flag":"-","location1":"WYOMING","sort_order":"20220200056","geocode":{"type":"Point","coordinates":[-107.55145,42.999627]}}
        ,{"states":"PACIFIC","year":"2022","week":"2","label":"Anthrax","m1_flag":"-","m2":"0","m2_flag":"-","m3_flag":"-","m4_flag":"-","location2":"PACIFIC","sort_order":"20220200057"}
        ,{"states":"ALASKA","year":"2022","week":"2","label":"Anthrax","m1_flag":"-","m2":"0","m2_flag":"-","m3_flag":"-","m4_flag":"-","location1":"ALASKA","sort_order":"20220200058","geocode":{"type":"Point","coordinates":[-151.631889,63.631126]}}
        ,{"states":"CALIFORNIA","year":"2022","week":"2","label":"Anthrax","m1_flag":"-","m2":"0","m2_flag":"-","m3_flag":"-","m4_flag":"-","location1":"CALIFORNIA","sort_order":"20220200059","geocode":{"type":"Point","coordinates":[-119.662127,37.211164]}}
        ,{"states":"HAWAII","year":"2022","week":"2","label":"Anthrax","m1_flag":"-","m2":"0","m2_flag":"-","m3_flag":"-","m4_flag":"-","location1":"HAWAII","sort_order":"20220200060","geocode":{"type":"Point","coordinates":[-157.854309,21.361013]}}
        ,{"states":"OREGON","year":"2022","week":"2","label":"Anthrax","m1_flag":"-","m2":"0","m2_flag":"-","m3_flag":"-","m4_flag":"-","location1":"OREGON","sort_order":"20220200061","geocode":{"type":"Point","coordinates":[-120.605279,43.940449]}}
        ,{"states":"WASHINGTON","year":"2022","week":"2","label":"Anthrax","m1_flag":"-","m2":"0","m2_flag":"-","m3_flag":"-","m4_flag":"-","location1":"WASHINGTON","sort_order":"20220200062","geocode":{"type":"Point","coordinates":[-120.592492,47.411715]}}
        ,{"states":"US TERRITORIES","year":"2022","week":"2","label":"Anthrax","m1_flag":"-","m2":"0","m2_flag":"-","m3_flag":"-","m4_flag":"-","location2":"US TERRITORIES","sort_order":"20220200063"}
        ,{"states":"AMERICAN SAMOA","year":"2022","week":"2","label":"Anthrax","m1_flag":"-","m2":"0","m2_flag":"-","m3_flag":"-","m4_flag":"-","location1":"AMERICAN SAMOA","sort_order":"20220200064"}
        ,{"states":"NORTHERN MARIANA ISLANDS","year":"2022","week":"2","label":"Anthrax","m1_flag":"-","m2":"0","m2_flag":"-","m3_flag":"-","m4_flag":"-","location1":"NORTHERN MARIANA ISLANDS","sort_order":"20220200065","geocode":{"type":"Point","coordinates":[145.725693,15.1834]}}
        ,{"states":"GUAM","year":"2022","week":"2","label":"Anthrax","m1_flag":"-","m2":"0","m2_flag":"-","m3_flag":"-","m4_flag":"-","location1":"GUAM","sort_order":"20220200066","geocode":{"type":"Point","coordinates":[144.653198,13.3532]}}
        ,{"states":"PUERTO RICO","year":"2022","week":"2","label":"Anthrax","m1_flag":"-","m2":"0","m2_flag":"-","m3_flag":"-","m4_flag":"-","location1":"PUERTO RICO","sort_order":"20220200067","geocode":{"type":"Point","coordinates":[-66.414655,18.215692]}}
        ,{"states":"U.S. VIRGIN ISLANDS","year":"2022","week":"2","label":"Anthrax","m1_flag":"-","m2":"0","m2_flag":"-","m3_flag":"-","m4_flag":"-","location1":"U.S. VIRGIN ISLANDS","sort_order":"20220200068"}
        ,{"states":"NON-US RESIDENTS","year":"2022","week":"2","label":"Anthrax","m1_flag":"-","m2":"0","m2_flag":"-","m3_flag":"-","m4_flag":"-","location2":"NON-US RESIDENTS","sort_order":"20220200069"}
        ,{"states":"TOTAL","year":"2022","week":"2","label":"Anthrax","m1_flag":"-","m2":"0","m2_flag":"-","m3_flag":"-","m4_flag":"-","location2":"TOTAL","sort_order":"20220200070"}
        ,{"states":"US RESIDENTS","year":"2022","week":"2","label":"Arboviral diseases, Chikungunya virus disease","m1_flag":"-","m2":"2","m2_flag":"-","m3_flag":"-","m4":"1","m4_flag":"-","location2":"US RESIDENTS","sort_order":"20220200071"}
        ,{"states":"NEW ENGLAND","year":"2022","week":"2","label":"Arboviral diseases, Chikungunya virus disease","m1_flag":"-","m2":"1","m2_flag":"-","m3_flag":"-","m4_flag":"-","location2":"NEW ENGLAND","sort_order":"20220200072"}
        ,{"states":"CONNECTICUT","year":"2022","week":"2","label":"Arboviral diseases, Chikungunya virus disease","m1_flag":"-","m2":"0","m2_flag":"-","m3_flag":"-","m4_flag":"-","location1":"CONNECTICUT","sort_order":"20220200073","geocode":{"type":"Point","coordinates":[-72.738288,41.575155]}}
        ,{"states":"MAINE","year":"2022","week":"2","label":"Arboviral diseases, Chikungunya virus disease","m1_flag":"-","m2":"0","m2_flag":"-","m3_flag":"-","m4_flag":"-","location1":"MAINE","sort_order":"20220200074","geocode":{"type":"Point","coordinates":[-69.06137,45.117911]}}
        ,{"states":"MASSACHUSETTS","year":"2022","week":"2","label":"Arboviral diseases, Chikungunya virus disease","m1_flag":"-","m2":"1","m2_flag":"-","m3_flag":"-","m4_flag":"-","location1":"MASSACHUSETTS","sort_order":"20220200075","geocode":{"type":"Point","coordinates":[-71.481104,42.151077]}}
        ,{"states":"NEW HAMPSHIRE","year":"2022","week":"2","label":"Arboviral diseases, Chikungunya virus disease","m1_flag":"-","m2":"0","m2_flag":"-","m3_flag":"-","m4_flag":"-","location1":"NEW HAMPSHIRE","sort_order":"20220200076","geocode":{"type":"Point","coordinates":[-71.57139,43.680429]}}
        ,{"states":"RHODE ISLAND","year":"2022","week":"2","label":"Arboviral diseases, Chikungunya virus disease","m1_flag":"-","m2":"0","m2_flag":"-","m3_flag":"-","m4_flag":"-","location1":"RHODE ISLAND","sort_order":"20220200077","geocode":{"type":"Point","coordinates":[-71.534637,41.572574]}}
        ,{"states":"VERMONT","year":"2022","week":"2","label":"Arboviral diseases, Chikungunya virus disease","m1_flag":"-","m2":"0","m2_flag":"-","m3_flag":"-","m4_flag":"-","location1":"VERMONT","sort_order":"20220200078","geocode":{"type":"Point","coordinates":[-72.662695,44.075252]}}
        ,{"states":"MIDDLE ATLANTIC","year":"2022","week":"2","label":"Arboviral diseases, Chikungunya virus disease","m1_flag":"-","m2":"1","m2_flag":"-","m3_flag":"-","m4_flag":"-","location2":"MIDDLE ATLANTIC","sort_order":"20220200079"}
        ,{"states":"NEW JERSEY","year":"2022","week":"2","label":"Arboviral diseases, Chikungunya virus disease","m1_flag":"-","m2":"1","m2_flag":"-","m3_flag":"-","m4_flag":"-","location1":"NEW JERSEY","sort_order":"20220200080","geocode":{"type":"Point","coordinates":[-74.655514,40.110253]}}
        ,{"states":"NEW YORK","year":"2022","week":"2","label":"Arboviral diseases, Chikungunya virus disease","m1_flag":"-","m2":"0","m2_flag":"-","m3_flag":"-","m4_flag":"-","location1":"NEW YORK","sort_order":"20220200081","geocode":{"type":"Point","coordinates":[-75.59655,42.921241]}}
        ,{"states":"NEW YORK CITY","year":"2022","week":"2","label":"Arboviral diseases, Chikungunya virus disease","m1_flag":"-","m2":"0","m2_flag":"-","m3_flag":"-","m4_flag":"-","location1":"NEW YORK CITY","sort_order":"20220200082"}
        ,{"states":"PENNSYLVANIA","year":"2022","week":"2","label":"Arboviral diseases, Chikungunya virus disease","m1_flag":"-","m2":"0","m2_flag":"-","m3_flag":"-","m4_flag":"-","location1":"PENNSYLVANIA","sort_order":"20220200083","geocode":{"type":"Point","coordinates":[-77.838886,40.896694]}}
        ,{"states":"EAST NORTH CENTRAL","year":"2022","week":"2","label":"Arboviral diseases, Chikungunya virus disease","m1_flag":"-","m2":"1","m2_flag":"-","m3_flag":"-","m4_flag":"-","location2":"EAST NORTH CENTRAL","sort_order":"20220200084"}
        ,{"states":"ILLINOIS","year":"2022","week":"2","label":"Arboviral diseases, Chikungunya virus disease","m1_flag":"-","m2":"1","m2_flag":"-","m3_flag":"-","m4_flag":"-","location1":"ILLINOIS","sort_order":"20220200085","geocode":{"type":"Point","coordinates":[-89.148632,40.124144]}}
        ,{"states":"INDIANA","year":"2022","week":"2","label":"Arboviral diseases, Chikungunya virus disease","m1_flag":"-","m2":"1","m2_flag":"-","m3_flag":"-","m4_flag":"-","location1":"INDIANA","sort_order":"20220200086","geocode":{"type":"Point","coordinates":[-86.2818,39.919991]}}
        ,{"states":"MICHIGAN","year":"2022","week":"2","label":"Arboviral diseases, Chikungunya virus disease","m1_flag":"-","m2":"0","m2_flag":"-","m3_flag":"-","m4_flag":"-","location1":"MICHIGAN","sort_order":"20220200087","geocode":{"type":"Point","coordinates":[-85.730977,44.874798]}}
        ,{"states":"OHIO","year":"2022","week":"2","label":"Arboviral diseases, Chikungunya virus disease","m1_flag":"-","m2":"0","m2_flag":"-","m3_flag":"-","m4_flag":"-","location1":"OHIO","sort_order":"20220200088","geocode":{"type":"Point","coordinates":[-82.70936,40.415534]}}
        ,{"states":"WISCONSIN","year":"2022","week":"2","label":"Arboviral diseases, Chikungunya virus disease","m1_flag":"-","m2":"0","m2_flag":"-","m3_flag":"-","m4_flag":"-","location1":"WISCONSIN","sort_order":"20220200089","geocode":{"type":"Point","coordinates":[-89.732969,44.639954]}}
        ,{"states":"WEST NORTH CENTRAL","year":"2022","week":"2","label":"Arboviral diseases, Chikungunya virus disease","m1_flag":"-","m2":"1","m2_flag":"-","m3_flag":"-","m4_flag":"-","location2":"WEST NORTH CENTRAL","sort_order":"20220200090"}
        ,{"states":"IOWA","year":"2022","week":"2","label":"Arboviral diseases, Chikungunya virus disease","m1_flag":"-","m2":"0","m2_flag":"-","m3_flag":"-","m4_flag":"-","location1":"IOWA","sort_order":"20220200091","geocode":{"type":"Point","coordinates":[-93.500061,42.074659]}}
        ,{"states":"KANSAS","year":"2022","week":"2","label":"Arboviral diseases, Chikungunya virus disease","m1_flag":"-","m2":"0","m2_flag":"-","m3_flag":"-","m4_flag":"-","location1":"KANSAS","sort_order":"20220200092","geocode":{"type":"Point","coordinates":[-98.38018,38.484729]}}
        ,{"states":"MINNESOTA","year":"2022","week":"2","label":"Arboviral diseases, Chikungunya virus disease","m1_flag":"-","m2":"1","m2_flag":"-","m3_flag":"-","m4_flag":"-","location1":"MINNESOTA","sort_order":"20220200093","geocode":{"type":"Point","coordinates":[-94.198308,46.349153]}}
        ,{"states":"MISSOURI","year":"2022","week":"2","label":"Arboviral diseases, Chikungunya virus disease","m1_flag":"-","m2":"1","m2_flag":"-","m3_flag":"-","m4_flag":"-","location1":"MISSOURI","sort_order":"20220200094","geocode":{"type":"Point","coordinates":[-92.477244,38.3675]}}
        ,{"states":"NEBRASKA","year":"2022","week":"2","label":"Arboviral diseases, Chikungunya virus disease","m1_flag":"-","m2":"0","m2_flag":"-","m3_flag":"-","m4_flag":"-","location1":"NEBRASKA","sort_order":"20220200095","geocode":{"type":"Point","coordinates":[-99.810595,41.527099]}}
        ,{"states":"NORTH DAKOTA","year":"2022","week":"2","label":"Arboviral diseases, Chikungunya virus disease","m1_flag":"-","m2":"0","m2_flag":"-","m3_flag":"-","m4_flag":"-","location1":"NORTH DAKOTA","sort_order":"20220200096","geocode":{"type":"Point","coordinates":[-100.46931,47.446305]}}
        ,{"states":"SOUTH DAKOTA","year":"2022","week":"2","label":"Arboviral diseases, Chikungunya virus disease","m1_flag":"-","m2":"0","m2_flag":"-","m3_flag":"-","m4_flag":"-","location1":"SOUTH DAKOTA","sort_order":"20220200097","geocode":{"type":"Point","coordinates":[-100.230491,44.43614]}}
        ,{"states":"SOUTH ATLANTIC","year":"2022","week":"2","label":"Arboviral diseases, Chikungunya virus disease","m1_flag":"-","m2":"1","m2_flag":"-","m3_flag":"-","m4_flag":"-","location2":"SOUTH ATLANTIC","sort_order":"20220200098"}
        ,{"states":"DELAWARE","year":"2022","week":"2","label":"Arboviral diseases, Chikungunya virus disease","m1_flag":"-","m2":"0","m2_flag":"-","m3_flag":"-","m4_flag":"-","location1":"DELAWARE","sort_order":"20220200099","geocode":{"type":"Point","coordinates":[-75.452394,38.994926]}}
        ,{"states":"DISTRICT OF COLUMBIA","year":"2022","week":"2","label":"Arboviral diseases, Chikungunya virus disease","m1_flag":"-","m2":"0","m2_flag":"-","m3_flag":"-","m4_flag":"-","location1":"DISTRICT OF COLUMBIA","sort_order":"20220200100","geocode":{"type":"Point","coordinates":[-77.016275,38.904785]}}
        ,{"states":"FLORIDA","year":"2022","week":"2","label":"Arboviral diseases, Chikungunya virus disease","m1_flag":"-","m2":"1","m2_flag":"-","m3_flag":"-","m4_flag":"-","location1":"FLORIDA","sort_order":"20220200101","geocode":{"type":"Point","coordinates":[-82.420978,28.260731]}}
        ,{"states":"GEORGIA","year":"2022","week":"2","label":"Arboviral diseases, Chikungunya virus disease","m1_flag":"-","m2":"0","m2_flag":"-","m3_flag":"-","m4_flag":"-","location1":"GEORGIA","sort_order":"20220200102","geocode":{"type":"Point","coordinates":[-83.426574,32.638481]}}
        ,{"states":"MARYLAND","year":"2022","week":"2","label":"Arboviral diseases, Chikungunya virus disease","m1_flag":"-","m2":"0","m2_flag":"-","m3_flag":"-","m4_flag":"-","location1":"MARYLAND","sort_order":"20220200103","geocode":{"type":"Point","coordinates":[-76.687282,38.946466]}}
        ,{"states":"NORTH CAROLINA","year":"2022","week":"2","label":"Arboviral diseases, Chikungunya virus disease","m1_flag":"-","m2":"1","m2_flag":"-","m3_flag":"-","m4_flag":"-","location1":"NORTH CAROLINA","sort_order":"20220200104","geocode":{"type":"Point","coordinates":[-79.130883,35.52603]}}
        ,{"states":"SOUTH CAROLINA","year":"2022","week":"2","label":"Arboviral diseases, Chikungunya virus disease","m1_flag":"-","m2":"1","m2_flag":"-","m3_flag":"-","m4_flag":"-","location1":"SOUTH CAROLINA","sort_order":"20220200105","geocode":{"type":"Point","coordinates":[-80.864614,33.878572]}}
        ,{"states":"VIRGINIA","year":"2022","week":"2","label":"Arboviral diseases, Chikungunya virus disease","m1_flag":"-","m2":"0","m2_flag":"-","m3_flag":"-","m4_flag":"-","location1":"VIRGINIA","sort_order":"20220200106","geocode":{"type":"Point","coordinates":[-78.666382,37.510861]}}
        ,{"states":"WEST VIRGINIA","year":"2022","week":"2","label":"Arboviral diseases, Chikungunya virus disease","m1_flag":"-","m2":"0","m2_flag":"-","m3_flag":"-","m4_flag":"-","location1":"WEST VIRGINIA","sort_order":"20220200107","geocode":{"type":"Point","coordinates":[-80.613729,38.642579]}}
        ,{"states":"EAST SOUTH CENTRAL","year":"2022","week":"2","label":"Arboviral diseases, Chikungunya virus disease","m1_flag":"-","m2":"1","m2_flag":"-","m3_flag":"-","m4_flag":"-","location2":"EAST SOUTH CENTRAL","sort_order":"20220200108"}
        ,{"states":"ALABAMA","year":"2022","week":"2","label":"Arboviral diseases, Chikungunya virus disease","m1_flag":"-","m2":"0","m2_flag":"-","m3_flag":"-","m4_flag":"-","location1":"ALABAMA","sort_order":"20220200109","geocode":{"type":"Point","coordinates":[-86.844516,32.756889]}}
        ,{"states":"KENTUCKY","year":"2022","week":"2","label":"Arboviral diseases, Chikungunya virus disease","m1_flag":"-","m2":"1","m2_flag":"-","m3_flag":"-","m4_flag":"-","location1":"KENTUCKY","sort_order":"20220200110","geocode":{"type":"Point","coordinates":[-85.290484,37.526683]}}
        ,{"states":"MISSISSIPPI","year":"2022","week":"2","label":"Arboviral diseases, Chikungunya virus disease","m1_flag":"-","m2":"0","m2_flag":"-","m3_flag":"-","m4_flag":"-","location1":"MISSISSIPPI","sort_order":"20220200111","geocode":{"type":"Point","coordinates":[-89.65344,32.713378]}}
        ,{"states":"TENNESSEE","year":"2022","week":"2","label":"Arboviral diseases, Chikungunya virus disease","m1_flag":"-","m2":"0","m2_flag":"-","m3_flag":"-","m4_flag":"-","location1":"TENNESSEE","sort_order":"20220200112","geocode":{"type":"Point","coordinates":[-86.343226,35.842998]}}
        ,{"states":"WEST SOUTH CENTRAL","year":"2022","week":"2","label":"Arboviral diseases, Chikungunya virus disease","m1_flag":"-","m2":"1","m2_flag":"-","m3_flag":"-","m4_flag":"-","location2":"WEST SOUTH CENTRAL","sort_order":"20220200113"}
        ,{"states":"ARKANSAS","year":"2022","week":"2","label":"Arboviral diseases, Chikungunya virus disease","m1_flag":"-","m2":"0","m2_flag":"-","m3_flag":"-","m4_flag":"-","location1":"ARKANSAS","sort_order":"20220200114","geocode":{"type":"Point","coordinates":[-92.439162,34.899825]}}
        ,{"states":"LOUISIANA","year":"2022","week":"2","label":"Arboviral diseases, Chikungunya virus disease","m1_flag":"-","m2":"1","m2_flag":"-","m3_flag":"-","m4_flag":"-","location1":"LOUISIANA","sort_order":"20220200115","geocode":{"type":"Point","coordinates":[-91.840238,30.921314]}}
        ,{"states":"OKLAHOMA","year":"2022","week":"2","label":"Arboviral diseases, Chikungunya virus disease","m1_flag":"-","m2":"0","m2_flag":"-","m3_flag":"-","m4_flag":"-","location1":"OKLAHOMA","sort_order":"20220200116","geocode":{"type":"Point","coordinates":[-97.508297,35.583449]}}
        ,{"states":"TEXAS","year":"2022","week":"2","label":"Arboviral diseases, Chikungunya virus disease","m1_flag":"-","m2":"0","m2_flag":"-","m3_flag":"-","m4_flag":"-","location1":"TEXAS","sort_order":"20220200117","geocode":{"type":"Point","coordinates":[-99.317341,31.447238]}}
        ,{"states":"MOUNTAIN","year":"2022","week":"2","label":"Arboviral diseases, Chikungunya virus disease","m1_flag":"-","m2":"1","m2_flag":"-","m3_flag":"-","m4_flag":"-","location2":"MOUNTAIN","sort_order":"20220200118"}
        ,{"states":"ARIZONA","year":"2022","week":"2","label":"Arboviral diseases, Chikungunya virus disease","m1_flag":"-","m2":"0","m2_flag":"-","m3_flag":"-","m4_flag":"-","location1":"ARIZONA","sort_order":"20220200119","geocode":{"type":"Point","coordinates":[-111.664616,34.293239]}}
        ,{"states":"COLORADO","year":"2022","week":"2","label":"Arboviral diseases, Chikungunya virus disease","m1_flag":"-","m2":"1","m2_flag":"-","m3_flag":"-","m4_flag":"-","location1":"COLORADO","sort_order":"20220200120","geocode":{"type":"Point","coordinates":[-105.547832,38.998552]}}
        ,{"states":"IDAHO","year":"2022","week":"2","label":"Arboviral diseases, Chikungunya virus disease","m1_flag":"-","m2":"0","m2_flag":"-","m3_flag":"-","m4_flag":"-","location1":"IDAHO","sort_order":"20220200121","geocode":{"type":"Point","coordinates":[-114.659366,44.389073]}}
        ,{"states":"MONTANA","year":"2022","week":"2","label":"Arboviral diseases, Chikungunya virus disease","m1_flag":"-","m2":"0","m2_flag":"-","m3_flag":"-","m4_flag":"-","location1":"MONTANA","sort_order":"20220200122","geocode":{"type":"Point","coordinates":[-109.645127,47.033521]}}
        ,{"states":"NEVADA","year":"2022","week":"2","label":"Arboviral diseases, Chikungunya virus disease","m1_flag":"-","m2":"0","m2_flag":"-","m3_flag":"-","m4_flag":"-","location1":"NEVADA","sort_order":"20220200123","geocode":{"type":"Point","coordinates":[-114.916992,39.283294]}}
        ,{"states":"NEW MEXICO","year":"2022","week":"2","label":"Arboviral diseases, Chikungunya virus disease","m1_flag":"-","m2":"1","m2_flag":"-","m3_flag":"-","m4_flag":"-","location1":"NEW MEXICO","sort_order":"20220200124","geocode":{"type":"Point","coordinates":[-106.108388,34.421369]}}
        ,{"states":"UTAH","year":"2022","week":"2","label":"Arboviral diseases, Chikungunya virus disease","m1_flag":"-","m2":"0","m2_flag":"-","m3_flag":"-","m4_flag":"-","location1":"UTAH","sort_order":"20220200125","geocode":{"type":"Point","coordinates":[-111.678222,39.323779]}}
        ,{"states":"WYOMING","year":"2022","week":"2","label":"Arboviral diseases, Chikungunya virus disease","m1_flag":"-","m2":"0","m2_flag":"-","m3_flag":"-","m4_flag":"-","location1":"WYOMING","sort_order":"20220200126","geocode":{"type":"Point","coordinates":[-107.55145,42.999627]}}
        ,{"states":"PACIFIC","year":"2022","week":"2","label":"Arboviral diseases, Chikungunya virus disease","m1_flag":"-","m2":"1","m2_flag":"-","m3_flag":"-","m4":"1","m4_flag":"-","location2":"PACIFIC","sort_order":"20220200127"}
        ,{"states":"ALASKA","year":"2022","week":"2","label":"Arboviral diseases, Chikungunya virus disease","m1_flag":"-","m2":"0","m2_flag":"-","m3_flag":"-","m4_flag":"-","location1":"ALASKA","sort_order":"20220200128","geocode":{"type":"Point","coordinates":[-151.631889,63.631126]}}
        ,{"states":"CALIFORNIA","year":"2022","week":"2","label":"Arboviral diseases, Chikungunya virus disease","m1_flag":"-","m2":"1","m2_flag":"-","m3_flag":"-","m4":"1","m4_flag":"-","location1":"CALIFORNIA","sort_order":"20220200129","geocode":{"type":"Point","coordinates":[-119.662127,37.211164]}}
        ,{"states":"HAWAII","year":"2022","week":"2","label":"Arboviral diseases, Chikungunya virus disease","m1_flag":"-","m2":"0","m2_flag":"-","m3_flag":"-","m4_flag":"-","location1":"HAWAII","sort_order":"20220200130","geocode":{"type":"Point","coordinates":[-157.854309,21.361013]}}
        ,{"states":"OREGON","year":"2022","week":"2","label":"Arboviral diseases, Chikungunya virus disease","m1_flag":"-","m2":"1","m2_flag":"-","m3_flag":"-","m4_flag":"-","location1":"OREGON","sort_order":"20220200131","geocode":{"type":"Point","coordinates":[-120.605279,43.940449]}}
        ,{"states":"WASHINGTON","year":"2022","week":"2","label":"Arboviral diseases, Chikungunya virus disease","m1_flag":"-","m2":"1","m2_flag":"-","m3_flag":"-","m4_flag":"-","location1":"WASHINGTON","sort_order":"20220200132","geocode":{"type":"Point","coordinates":[-120.592492,47.411715]}}
        ,{"states":"US TERRITORIES","year":"2022","week":"2","label":"Arboviral diseases, Chikungunya virus disease","m1_flag":"-","m2":"0","m2_flag":"-","m3_flag":"-","m4_flag":"-","location2":"US TERRITORIES","sort_order":"20220200133"}
        ,{"states":"AMERICAN SAMOA","year":"2022","week":"2","label":"Arboviral diseases, Chikungunya virus disease","m1_flag":"-","m2":"0","m2_flag":"-","m3_flag":"-","m4_flag":"-","location1":"AMERICAN SAMOA","sort_order":"20220200134"}
        ,{"states":"NORTHERN MARIANA ISLANDS","year":"2022","week":"2","label":"Arboviral diseases, Chikungunya virus disease","m1_flag":"-","m2":"0","m2_flag":"-","m3_flag":"-","m4_flag":"-","location1":"NORTHERN MARIANA ISLANDS","sort_order":"20220200135","geocode":{"type":"Point","coordinates":[145.725693,15.1834]}}
        ,{"states":"GUAM","year":"2022","week":"2","label":"Arboviral diseases, Chikungunya virus disease","m1_flag":"-","m2":"0","m2_flag":"-","m3_flag":"-","m4_flag":"-","location1":"GUAM","sort_order":"20220200136","geocode":{"type":"Point","coordinates":[144.653198,13.3532]}}
        ,{"states":"PUERTO RICO","year":"2022","week":"2","label":"Arboviral diseases, Chikungunya virus disease","m1_flag":"-","m2":"0","m2_flag":"-","m3_flag":"-","m4_flag":"-","location1":"PUERTO RICO","sort_order":"20220200137","geocode":{"type":"Point","coordinates":[-66.414655,18.215692]}}
        ,{"states":"U.S. VIRGIN ISLANDS","year":"2022","week":"2","label":"Arboviral diseases, Chikungunya virus disease","m1_flag":"-","m2":"0","m2_flag":"-","m3_flag":"-","m4_flag":"-","location1":"U.S. VIRGIN ISLANDS","sort_order":"20220200138"}
        ,{"states":"NON-US RESIDENTS","year":"2022","week":"2","label":"Arboviral diseases, Chikungunya virus disease","m1_flag":"-","m2":"0","m2_flag":"-","m3_flag":"-","m4_flag":"-","location2":"NON-US RESIDENTS","sort_order":"20220200139"}
        ,{"states":"TOTAL","year":"2022","week":"2","label":"Arboviral diseases, Chikungunya virus disease","m1_flag":"-","m2":"2","m2_flag":"-","m3_flag":"-","m4":"1","m4_flag":"-","location2":"TOTAL","sort_order":"20220200140"}
        ,{"states":"US RESIDENTS","year":"2022","week":"2","label":"Arboviral diseases, Eastern equine encephalitis virus disease","m1_flag":"-","m2":"1","m2_flag":"-","m3_flag":"-","m4_flag":"-","location2":"US RESIDENTS","sort_order":"20220200141"}
        ,{"states":"NEW ENGLAND","year":"2022","week":"2","label":"Arboviral diseases, Eastern equine encephalitis virus disease","m1_flag":"-","m2":"0","m2_flag":"-","m3_flag":"-","m4_flag":"-","location2":"NEW ENGLAND","sort_order":"20220200142"}
        ,{"states":"CONNECTICUT","year":"2022","week":"2","label":"Arboviral diseases, Eastern equine encephalitis virus disease","m1_flag":"-","m2":"0","m2_flag":"-","m3_flag":"-","m4_flag":"-","location1":"CONNECTICUT","sort_order":"20220200143","geocode":{"type":"Point","coordinates":[-72.738288,41.575155]}}
        ,{"states":"MAINE","year":"2022","week":"2","label":"Arboviral diseases, Eastern equine encephalitis virus disease","m1_flag":"-","m2":"0","m2_flag":"-","m3_flag":"-","m4_flag":"-","location1":"MAINE","sort_order":"20220200144","geocode":{"type":"Point","coordinates":[-69.06137,45.117911]}}
        ,{"states":"MASSACHUSETTS","year":"2022","week":"2","label":"Arboviral diseases, Eastern equine encephalitis virus disease","m1_flag":"-","m2":"0","m2_flag":"-","m3_flag":"-","m4_flag":"-","location1":"MASSACHUSETTS","sort_order":"20220200145","geocode":{"type":"Point","coordinates":[-71.481104,42.151077]}}
        ,{"states":"NEW HAMPSHIRE","year":"2022","week":"2","label":"Arboviral diseases, Eastern equine encephalitis virus disease","m1_flag":"-","m2":"0","m2_flag":"-","m3_flag":"-","m4_flag":"-","location1":"NEW HAMPSHIRE","sort_order":"20220200146","geocode":{"type":"Point","coordinates":[-71.57139,43.680429]}}
        ,{"states":"RHODE ISLAND","year":"2022","week":"2","label":"Arboviral diseases, Eastern equine encephalitis virus disease","m1_flag":"-","m2":"0","m2_flag":"-","m3_flag":"-","m4_flag":"-","location1":"RHODE ISLAND","sort_order":"20220200147","geocode":{"type":"Point","coordinates":[-71.534637,41.572574]}}
        ,{"states":"VERMONT","year":"2022","week":"2","label":"Arboviral diseases, Eastern equine encephalitis virus disease","m1_flag":"-","m2":"0","m2_flag":"-","m3_flag":"-","m4_flag":"-","location1":"VERMONT","sort_order":"20220200148","geocode":{"type":"Point","coordinates":[-72.662695,44.075252]}}
        ,{"states":"MIDDLE ATLANTIC","year":"2022","week":"2","label":"Arboviral diseases, Eastern equine encephalitis virus disease","m1_flag":"-","m2":"0","m2_flag":"-","m3_flag":"-","m4_flag":"-","location2":"MIDDLE ATLANTIC","sort_order":"20220200149"}
        ,{"states":"NEW JERSEY","year":"2022","week":"2","label":"Arboviral diseases, Eastern equine encephalitis virus disease","m1_flag":"-","m2":"0","m2_flag":"-","m3_flag":"-","m4_flag":"-","location1":"NEW JERSEY","sort_order":"20220200150","geocode":{"type":"Point","coordinates":[-74.655514,40.110253]}}
        ,{"states":"NEW YORK","year":"2022","week":"2","label":"Arboviral diseases, Eastern equine encephalitis virus disease","m1_flag":"-","m2":"0","m2_flag":"-","m3_flag":"-","m4_flag":"-","location1":"NEW YORK","sort_order":"20220200151","geocode":{"type":"Point","coordinates":[-75.59655,42.921241]}}
        ,{"states":"NEW YORK CITY","year":"2022","week":"2","label":"Arboviral diseases, Eastern equine encephalitis virus disease","m1_flag":"-","m2":"0","m2_flag":"-","m3_flag":"-","m4_flag":"-","location1":"NEW YORK CITY","sort_order":"20220200152"}
        ,{"states":"PENNSYLVANIA","year":"2022","week":"2","label":"Arboviral diseases, Eastern equine encephalitis virus disease","m1_flag":"-","m2":"0","m2_flag":"-","m3_flag":"-","m4_flag":"-","location1":"PENNSYLVANIA","sort_order":"20220200153","geocode":{"type":"Point","coordinates":[-77.838886,40.896694]}}
        ,{"states":"EAST NORTH CENTRAL","year":"2022","week":"2","label":"Arboviral diseases, Eastern equine encephalitis virus disease","m1_flag":"-","m2":"1","m2_flag":"-","m3_flag":"-","m4_flag":"-","location2":"EAST NORTH CENTRAL","sort_order":"20220200154"}
        ,{"states":"ILLINOIS","year":"2022","week":"2","label":"Arboviral diseases, Eastern equine encephalitis virus disease","m1_flag":"-","m2":"0","m2_flag":"-","m3_flag":"-","m4_flag":"-","location1":"ILLINOIS","sort_order":"20220200155","geocode":{"type":"Point","coordinates":[-89.148632,40.124144]}}
        ,{"states":"INDIANA","year":"2022","week":"2","label":"Arboviral diseases, Eastern equine encephalitis virus disease","m1_flag":"-","m2":"0","m2_flag":"-","m3_flag":"-","m4_flag":"-","location1":"INDIANA","sort_order":"20220200156","geocode":{"type":"Point","coordinates":[-86.2818,39.919991]}}
        ,{"states":"MICHIGAN","year":"2022","week":"2","label":"Arboviral diseases, Eastern equine encephalitis virus disease","m1_flag":"-","m2":"1","m2_flag":"-","m3_flag":"-","m4_flag":"-","location1":"MICHIGAN","sort_order":"20220200157","geocode":{"type":"Point","coordinates":[-85.730977,44.874798]}}
        ,{"states":"OHIO","year":"2022","week":"2","label":"Arboviral diseases, Eastern equine encephalitis virus disease","m1_flag":"-","m2":"0","m2_flag":"-","m3_flag":"-","m4_flag":"-","location1":"OHIO","sort_order":"20220200158","geocode":{"type":"Point","coordinates":[-82.70936,40.415534]}}
        ,{"states":"WISCONSIN","year":"2022","week":"2","label":"Arboviral diseases, Eastern equine encephalitis virus disease","m1_flag":"-","m2":"1","m2_flag":"-","m3_flag":"-","m4_flag":"-","location1":"WISCONSIN","sort_order":"20220200159","geocode":{"type":"Point","coordinates":[-89.732969,44.639954]}}
        ,{"states":"WEST NORTH CENTRAL","year":"2022","week":"2","label":"Arboviral diseases, Eastern equine encephalitis virus disease","m1_flag":"-","m2":"0","m2_flag":"-","m3_flag":"-","m4_flag":"-","location2":"WEST NORTH CENTRAL","sort_order":"20220200160"}
        ,{"states":"IOWA","year":"2022","week":"2","label":"Arboviral diseases, Eastern equine encephalitis virus disease","m1_flag":"-","m2":"0","m2_flag":"-","m3_flag":"-","m4_flag":"-","location1":"IOWA","sort_order":"20220200161","geocode":{"type":"Point","coordinates":[-93.500061,42.074659]}}
        ,{"states":"KANSAS","year":"2022","week":"2","label":"Arboviral diseases, Eastern equine encephalitis virus disease","m1_flag":"-","m2":"0","m2_flag":"-","m3_flag":"-","m4_flag":"-","location1":"KANSAS","sort_order":"20220200162","geocode":{"type":"Point","coordinates":[-98.38018,38.484729]}}
        ,{"states":"MINNESOTA","year":"2022","week":"2","label":"Arboviral diseases, Eastern equine encephalitis virus disease","m1_flag":"-","m2":"0","m2_flag":"-","m3_flag":"-","m4_flag":"-","location1":"MINNESOTA","sort_order":"20220200163","geocode":{"type":"Point","coordinates":[-94.198308,46.349153]}}
        ,{"states":"MISSOURI","year":"2022","week":"2","label":"Arboviral diseases, Eastern equine encephalitis virus disease","m1_flag":"-","m2":"0","m2_flag":"-","m3_flag":"-","m4_flag":"-","location1":"MISSOURI","sort_order":"20220200164","geocode":{"type":"Point","coordinates":[-92.477244,38.3675]}}
        ,{"states":"NEBRASKA","year":"2022","week":"2","label":"Arboviral diseases, Eastern equine encephalitis virus disease","m1_flag":"-","m2":"0","m2_flag":"-","m3_flag":"-","m4_flag":"-","location1":"NEBRASKA","sort_order":"20220200165","geocode":{"type":"Point","coordinates":[-99.810595,41.527099]}}
        ,{"states":"NORTH DAKOTA","year":"2022","week":"2","label":"Arboviral diseases, Eastern equine encephalitis virus disease","m1_flag":"-","m2":"0","m2_flag":"-","m3_flag":"-","m4_flag":"-","location1":"NORTH DAKOTA","sort_order":"20220200166","geocode":{"type":"Point","coordinates":[-100.46931,47.446305]}}
        ,{"states":"SOUTH DAKOTA","year":"2022","week":"2","label":"Arboviral diseases, Eastern equine encephalitis virus disease","m1_flag":"-","m2":"0","m2_flag":"-","m3_flag":"-","m4_flag":"-","location1":"SOUTH DAKOTA","sort_order":"20220200167","geocode":{"type":"Point","coordinates":[-100.230491,44.43614]}}
        ,{"states":"SOUTH ATLANTIC","year":"2022","week":"2","label":"Arboviral diseases, Eastern equine encephalitis virus disease","m1_flag":"-","m2":"1","m2_flag":"-","m3_flag":"-","m4_flag":"-","location2":"SOUTH ATLANTIC","sort_order":"20220200168"}
        ,{"states":"DELAWARE","year":"2022","week":"2","label":"Arboviral diseases, Eastern equine encephalitis virus disease","m1_flag":"-","m2":"0","m2_flag":"-","m3_flag":"-","m4_flag":"-","location1":"DELAWARE","sort_order":"20220200169","geocode":{"type":"Point","coordinates":[-75.452394,38.994926]}}
        ,{"states":"DISTRICT OF COLUMBIA","year":"2022","week":"2","label":"Arboviral diseases, Eastern equine encephalitis virus disease","m1_flag":"-","m2":"0","m2_flag":"-","m3_flag":"-","m4_flag":"-","location1":"DISTRICT OF COLUMBIA","sort_order":"20220200170","geocode":{"type":"Point","coordinates":[-77.016275,38.904785]}}
        ,{"states":"FLORIDA","year":"2022","week":"2","label":"Arboviral diseases, Eastern equine encephalitis virus disease","m1_flag":"-","m2":"0","m2_flag":"-","m3_flag":"-","m4_flag":"-","location1":"FLORIDA","sort_order":"20220200171","geocode":{"type":"Point","coordinates":[-82.420978,28.260731]}}
        ,{"states":"GEORGIA","year":"2022","week":"2","label":"Arboviral diseases, Eastern equine encephalitis virus disease","m1_flag":"-","m2":"1","m2_flag":"-","m3_flag":"-","m4_flag":"-","location1":"GEORGIA","sort_order":"20220200172","geocode":{"type":"Point","coordinates":[-83.426574,32.638481]}}
        ,{"states":"MARYLAND","year":"2022","week":"2","label":"Arboviral diseases, Eastern equine encephalitis virus disease","m1_flag":"-","m2":"0","m2_flag":"-","m3_flag":"-","m4_flag":"-","location1":"MARYLAND","sort_order":"20220200173","geocode":{"type":"Point","coordinates":[-76.687282,38.946466]}}
        ,{"states":"NORTH CAROLINA","year":"2022","week":"2","label":"Arboviral diseases, Eastern equine encephalitis virus disease","m1_flag":"-","m2":"1","m2_flag":"-","m3_flag":"-","m4_flag":"-","location1":"NORTH CAROLINA","sort_order":"20220200174","geocode":{"type":"Point","coordinates":[-79.130883,35.52603]}}
        ,{"states":"SOUTH CAROLINA","year":"2022","week":"2","label":"Arboviral diseases, Eastern equine encephalitis virus disease","m1_flag":"-","m2":"0","m2_flag":"-","m3_flag":"-","m4_flag":"-","location1":"SOUTH CAROLINA","sort_order":"20220200175","geocode":{"type":"Point","coordinates":[-80.864614,33.878572]}}
        ,{"states":"VIRGINIA","year":"2022","week":"2","label":"Arboviral diseases, Eastern equine encephalitis virus disease","m1_flag":"-","m2":"0","m2_flag":"-","m3_flag":"-","m4_flag":"-","location1":"VIRGINIA","sort_order":"20220200176","geocode":{"type":"Point","coordinates":[-78.666382,37.510861]}}
        ,{"states":"WEST VIRGINIA","year":"2022","week":"2","label":"Arboviral diseases, Eastern equine encephalitis virus disease","m1_flag":"-","m2":"0","m2_flag":"-","m3_flag":"-","m4_flag":"-","location1":"WEST VIRGINIA","sort_order":"20220200177","geocode":{"type":"Point","coordinates":[-80.613729,38.642579]}}
        ,{"states":"EAST SOUTH CENTRAL","year":"2022","week":"2","label":"Arboviral diseases, Eastern equine encephalitis virus disease","m1_flag":"-","m2":"0","m2_flag":"-","m3_flag":"-","m4_flag":"-","location2":"EAST SOUTH CENTRAL","sort_order":"20220200178"}
        ,{"states":"ALABAMA","year":"2022","week":"2","label":"Arboviral diseases, Eastern equine encephalitis virus disease","m1_flag":"-","m2":"0","m2_flag":"-","m3_flag":"-","m4_flag":"-","location1":"ALABAMA","sort_order":"20220200179","geocode":{"type":"Point","coordinates":[-86.844516,32.756889]}}
        ,{"states":"KENTUCKY","year":"2022","week":"2","label":"Arboviral diseases, Eastern equine encephalitis virus disease","m1_flag":"-","m2":"0","m2_flag":"-","m3_flag":"-","m4_flag":"-","location1":"KENTUCKY","sort_order":"20220200180","geocode":{"type":"Point","coordinates":[-85.290484,37.526683]}}
        ,{"states":"MISSISSIPPI","year":"2022","week":"2","label":"Arboviral diseases, Eastern equine encephalitis virus disease","m1_flag":"-","m2":"0","m2_flag":"-","m3_flag":"-","m4_flag":"-","location1":"MISSISSIPPI","sort_order":"20220200181","geocode":{"type":"Point","coordinates":[-89.65344,32.713378]}}
        ,{"states":"TENNESSEE","year":"2022","week":"2","label":"Arboviral diseases, Eastern equine encephalitis virus disease","m1_flag":"-","m2":"0","m2_flag":"-","m3_flag":"-","m4_flag":"-","location1":"TENNESSEE","sort_order":"20220200182","geocode":{"type":"Point","coordinates":[-86.343226,35.842998]}}
        ,{"states":"WEST SOUTH CENTRAL","year":"2022","week":"2","label":"Arboviral diseases, Eastern equine encephalitis virus disease","m1_flag":"-","m2":"0","m2_flag":"-","m3_flag":"-","m4_flag":"-","location2":"WEST SOUTH CENTRAL","sort_order":"20220200183"}
        ,{"states":"ARKANSAS","year":"2022","week":"2","label":"Arboviral diseases, Eastern equine encephalitis virus disease","m1_flag":"-","m2":"0","m2_flag":"-","m3_flag":"-","m4_flag":"-","location1":"ARKANSAS","sort_order":"20220200184","geocode":{"type":"Point","coordinates":[-92.439162,34.899825]}}
        ,{"states":"LOUISIANA","year":"2022","week":"2","label":"Arboviral diseases, Eastern equine encephalitis virus disease","m1_flag":"-","m2":"0","m2_flag":"-","m3_flag":"-","m4_flag":"-","location1":"LOUISIANA","sort_order":"20220200185","geocode":{"type":"Point","coordinates":[-91.840238,30.921314]}}
        ,{"states":"OKLAHOMA","year":"2022","week":"2","label":"Arboviral diseases, Eastern equine encephalitis virus disease","m1_flag":"-","m2":"0","m2_flag":"-","m3_flag":"-","m4_flag":"-","location1":"OKLAHOMA","sort_order":"20220200186","geocode":{"type":"Point","coordinates":[-97.508297,35.583449]}}
        ,{"states":"TEXAS","year":"2022","week":"2","label":"Arboviral diseases, Eastern equine encephalitis virus disease","m1_flag":"-","m2":"0","m2_flag":"-","m3_flag":"-","m4_flag":"-","location1":"TEXAS","sort_order":"20220200187","geocode":{"type":"Point","coordinates":[-99.317341,31.447238]}}
        ,{"states":"MOUNTAIN","year":"2022","week":"2","label":"Arboviral diseases, Eastern equine encephalitis virus disease","m1_flag":"-","m2":"0","m2_flag":"-","m3_flag":"-","m4_flag":"-","location2":"MOUNTAIN","sort_order":"20220200188"}
        ,{"states":"ARIZONA","year":"2022","week":"2","label":"Arboviral diseases, Eastern equine encephalitis virus disease","m1_flag":"-","m2":"0","m2_flag":"-","m3_flag":"-","m4_flag":"-","location1":"ARIZONA","sort_order":"20220200189","geocode":{"type":"Point","coordinates":[-111.664616,34.293239]}}
        ,{"states":"COLORADO","year":"2022","week":"2","label":"Arboviral diseases, Eastern equine encephalitis virus disease","m1_flag":"-","m2":"0","m2_flag":"-","m3_flag":"-","m4_flag":"-","location1":"COLORADO","sort_order":"20220200190","geocode":{"type":"Point","coordinates":[-105.547832,38.998552]}}
        ,{"states":"IDAHO","year":"2022","week":"2","label":"Arboviral diseases, Eastern equine encephalitis virus disease","m1_flag":"-","m2":"0","m2_flag":"-","m3_flag":"-","m4_flag":"-","location1":"IDAHO","sort_order":"20220200191","geocode":{"type":"Point","coordinates":[-114.659366,44.389073]}}
        ,{"states":"MONTANA","year":"2022","week":"2","label":"Arboviral diseases, Eastern equine encephalitis virus disease","m1_flag":"-","m2":"0","m2_flag":"-","m3_flag":"-","m4_flag":"-","location1":"MONTANA","sort_order":"20220200192","geocode":{"type":"Point","coordinates":[-109.645127,47.033521]}}
        ,{"states":"NEVADA","year":"2022","week":"2","label":"Arboviral diseases, Eastern equine encephalitis virus disease","m1_flag":"-","m2":"0","m2_flag":"-","m3_flag":"-","m4_flag":"-","location1":"NEVADA","sort_order":"20220200193","geocode":{"type":"Point","coordinates":[-114.916992,39.283294]}}
        ,{"states":"NEW MEXICO","year":"2022","week":"2","label":"Arboviral diseases, Eastern equine encephalitis virus disease","m1_flag":"-","m2":"0","m2_flag":"-","m3_flag":"-","m4_flag":"-","location1":"NEW MEXICO","sort_order":"20220200194","geocode":{"type":"Point","coordinates":[-106.108388,34.421369]}}
        ,{"states":"UTAH","year":"2022","week":"2","label":"Arboviral diseases, Eastern equine encephalitis virus disease","m1_flag":"-","m2":"0","m2_flag":"-","m3_flag":"-","m4_flag":"-","location1":"UTAH","sort_order":"20220200195","geocode":{"type":"Point","coordinates":[-111.678222,39.323779]}}
        ,{"states":"WYOMING","year":"2022","week":"2","label":"Arboviral diseases, Eastern equine encephalitis virus disease","m1_flag":"-","m2":"0","m2_flag":"-","m3_flag":"-","m4_flag":"-","location1":"WYOMING","sort_order":"20220200196","geocode":{"type":"Point","coordinates":[-107.55145,42.999627]}}
        ,{"states":"PACIFIC","year":"2022","week":"2","label":"Arboviral diseases, Eastern equine encephalitis virus disease","m1_flag":"-","m2":"0","m2_flag":"-","m3_flag":"-","m4_flag":"-","location2":"PACIFIC","sort_order":"20220200197"}
        ,{"states":"ALASKA","year":"2022","week":"2","label":"Arboviral diseases, Eastern equine encephalitis virus disease","m1_flag":"-","m2":"0","m2_flag":"-","m3_flag":"-","m4_flag":"-","location1":"ALASKA","sort_order":"20220200198","geocode":{"type":"Point","coordinates":[-151.631889,63.631126]}}
        ,{"states":"CALIFORNIA","year":"2022","week":"2","label":"Arboviral diseases, Eastern equine encephalitis virus disease","m1_flag":"-","m2":"0","m2_flag":"-","m3_flag":"-","m4_flag":"-","location1":"CALIFORNIA","sort_order":"20220200199","geocode":{"type":"Point","coordinates":[-119.662127,37.211164]}}
        ,{"states":"HAWAII","year":"2022","week":"2","label":"Arboviral diseases, Eastern equine encephalitis virus disease","m1_flag":"-","m2":"0","m2_flag":"-","m3_flag":"-","m4_flag":"-","location1":"HAWAII","sort_order":"20220200200","geocode":{"type":"Point","coordinates":[-157.854309,21.361013]}}
        ,{"states":"OREGON","year":"2022","week":"2","label":"Arboviral diseases, Eastern equine encephalitis virus disease","m1_flag":"-","m2":"0","m2_flag":"-","m3_flag":"-","m4_flag":"-","location1":"OREGON","sort_order":"20220200201","geocode":{"type":"Point","coordinates":[-120.605279,43.940449]}}
        ,{"states":"WASHINGTON","year":"2022","week":"2","label":"Arboviral diseases, Eastern equine encephalitis virus disease","m1_flag":"-","m2":"0","m2_flag":"-","m3_flag":"-","m4_flag":"-","location1":"WASHINGTON","sort_order":"20220200202","geocode":{"type":"Point","coordinates":[-120.592492,47.411715]}}
        ,{"states":"US TERRITORIES","year":"2022","week":"2","label":"Arboviral diseases, Eastern equine encephalitis virus disease","m1_flag":"-","m2":"0","m2_flag":"-","m3_flag":"-","m4_flag":"-","location2":"US TERRITORIES","sort_order":"20220200203"}
        ,{"states":"AMERICAN SAMOA","year":"2022","week":"2","label":"Arboviral diseases, Eastern equine encephalitis virus disease","m1_flag":"-","m2":"0","m2_flag":"-","m3_flag":"-","m4_flag":"-","location1":"AMERICAN SAMOA","sort_order":"20220200204"}
        ,{"states":"NORTHERN MARIANA ISLANDS","year":"2022","week":"2","label":"Arboviral diseases, Eastern equine encephalitis virus disease","m1_flag":"-","m2":"0","m2_flag":"-","m3_flag":"-","m4_flag":"-","location1":"NORTHERN MARIANA ISLANDS","sort_order":"20220200205","geocode":{"type":"Point","coordinates":[145.725693,15.1834]}}
        ,{"states":"GUAM","year":"2022","week":"2","label":"Arboviral diseases, Eastern equine encephalitis virus disease","m1_flag":"-","m2":"0","m2_flag":"-","m3_flag":"-","m4_flag":"-","location1":"GUAM","sort_order":"20220200206","geocode":{"type":"Point","coordinates":[144.653198,13.3532]}}
        ,{"states":"PUERTO RICO","year":"2022","week":"2","label":"Arboviral diseases, Eastern equine encephalitis virus disease","m1_flag":"-","m2":"0","m2_flag":"-","m3_flag":"-","m4_flag":"-","location1":"PUERTO RICO","sort_order":"20220200207","geocode":{"type":"Point","coordinates":[-66.414655,18.215692]}}
        ,{"states":"U.S. VIRGIN ISLANDS","year":"2022","week":"2","label":"Arboviral diseases, Eastern equine encephalitis virus disease","m1_flag":"-","m2":"0","m2_flag":"-","m3_flag":"-","m4_flag":"-","location1":"U.S. VIRGIN ISLANDS","sort_order":"20220200208"}
        ,{"states":"NON-US RESIDENTS","year":"2022","week":"2","label":"Arboviral diseases, Eastern equine encephalitis virus disease","m1_flag":"-","m2":"0","m2_flag":"-","m3_flag":"-","m4_flag":"-","location2":"NON-US RESIDENTS","sort_order":"20220200209"}
        ,{"states":"TOTAL","year":"2022","week":"2","label":"Arboviral diseases, Eastern equine encephalitis virus disease","m1_flag":"-","m2":"1","m2_flag":"-","m3_flag":"-","m4_flag":"-","location2":"TOTAL","sort_order":"20220200210"}
        ,{"states":"US RESIDENTS","year":"2022","week":"2","label":"Arboviral diseases, Jamestown Canyon  virus disease","m1_flag":"-","m2":"3","m2_flag":"-","m3_flag":"-","m4_flag":"-","location2":"US RESIDENTS","sort_order":"20220200211"}
        ,{"states":"NEW ENGLAND","year":"2022","week":"2","label":"Arboviral diseases, Jamestown Canyon  virus disease","m1_flag":"-","m2":"1","m2_flag":"-","m3_flag":"-","m4_flag":"-","location2":"NEW ENGLAND","sort_order":"20220200212"}
        ,{"states":"CONNECTICUT","year":"2022","week":"2","label":"Arboviral diseases, Jamestown Canyon  virus disease","m1_flag":"-","m2":"0","m2_flag":"-","m3_flag":"-","m4_flag":"-","location1":"CONNECTICUT","sort_order":"20220200213","geocode":{"type":"Point","coordinates":[-72.738288,41.575155]}}
        ,{"states":"MAINE","year":"2022","week":"2","label":"Arboviral diseases, Jamestown Canyon  virus disease","m1_flag":"-","m2":"1","m2_flag":"-","m3_flag":"-","m4_flag":"-","location1":"MAINE","sort_order":"20220200214","geocode":{"type":"Point","coordinates":[-69.06137,45.117911]}}
        ,{"states":"MASSACHUSETTS","year":"2022","week":"2","label":"Arboviral diseases, Jamestown Canyon  virus disease","m1_flag":"-","m2":"0","m2_flag":"-","m3_flag":"-","m4_flag":"-","location1":"MASSACHUSETTS","sort_order":"20220200215","geocode":{"type":"Point","coordinates":[-71.481104,42.151077]}}
        ,{"states":"NEW HAMPSHIRE","year":"2022","week":"2","label":"Arboviral diseases, Jamestown Canyon  virus disease","m1_flag":"-","m2":"1","m2_flag":"-","m3_flag":"-","m4_flag":"-","location1":"NEW HAMPSHIRE","sort_order":"20220200216","geocode":{"type":"Point","coordinates":[-71.57139,43.680429]}}
        ,{"states":"RHODE ISLAND","year":"2022","week":"2","label":"Arboviral diseases, Jamestown Canyon  virus disease","m1_flag":"-","m2":"1","m2_flag":"-","m3_flag":"-","m4_flag":"-","location1":"RHODE ISLAND","sort_order":"20220200217","geocode":{"type":"Point","coordinates":[-71.534637,41.572574]}}
        ,{"states":"VERMONT","year":"2022","week":"2","label":"Arboviral diseases, Jamestown Canyon  virus disease","m1_flag":"-","m2":"0","m2_flag":"-","m3_flag":"-","m4_flag":"-","location1":"VERMONT","sort_order":"20220200218","geocode":{"type":"Point","coordinates":[-72.662695,44.075252]}}
        ,{"states":"MIDDLE ATLANTIC","year":"2022","week":"2","label":"Arboviral diseases, Jamestown Canyon  virus disease","m1_flag":"-","m2":"1","m2_flag":"-","m3_flag":"-","m4_flag":"-","location2":"MIDDLE ATLANTIC","sort_order":"20220200219"}
        ,{"states":"NEW JERSEY","year":"2022","week":"2","label":"Arboviral diseases, Jamestown Canyon  virus disease","m1_flag":"-","m2":"1","m2_flag":"-","m3_flag":"-","m4_flag":"-","location1":"NEW JERSEY","sort_order":"20220200220","geocode":{"type":"Point","coordinates":[-74.655514,40.110253]}}
        ,{"states":"NEW YORK","year":"2022","week":"2","label":"Arboviral diseases, Jamestown Canyon  virus disease","m1_flag":"-","m2":"0","m2_flag":"-","m3_flag":"-","m4_flag":"-","location1":"NEW YORK","sort_order":"20220200221","geocode":{"type":"Point","coordinates":[-75.59655,42.921241]}}
        ,{"states":"NEW YORK CITY","year":"2022","week":"2","label":"Arboviral diseases, Jamestown Canyon  virus disease","m1_flag":"-","m2":"0","m2_flag":"-","m3_flag":"-","m4_flag":"-","location1":"NEW YORK CITY","sort_order":"20220200222"}
        ,{"states":"PENNSYLVANIA","year":"2022","week":"2","label":"Arboviral diseases, Jamestown Canyon  virus disease","m1_flag":"-","m2":"0","m2_flag":"-","m3_flag":"-","m4_flag":"-","location1":"PENNSYLVANIA","sort_order":"20220200223","geocode":{"type":"Point","coordinates":[-77.838886,40.896694]}}
        ,{"states":"EAST NORTH CENTRAL","year":"2022","week":"2","label":"Arboviral diseases, Jamestown Canyon  virus disease","m1_flag":"-","m2":"1","m2_flag":"-","m3_flag":"-","m4_flag":"-","location2":"EAST NORTH CENTRAL","sort_order":"20220200224"}
        ,{"states":"ILLINOIS","year":"2022","week":"2","label":"Arboviral diseases, Jamestown Canyon  virus disease","m1_flag":"-","m2":"0","m2_flag":"-","m3_flag":"-","m4_flag":"-","location1":"ILLINOIS","sort_order":"20220200225","geocode":{"type":"Point","coordinates":[-89.148632,40.124144]}}
        ,{"states":"INDIANA","year":"2022","week":"2","label":"Arboviral diseases, Jamestown Canyon  virus disease","m1_flag":"-","m2":"1","m2_flag":"-","m3_flag":"-","m4_flag":"-","location1":"INDIANA","sort_order":"20220200226","geocode":{"type":"Point","coordinates":[-86.2818,39.919991]}}
        ,{"states":"MICHIGAN","year":"2022","week":"2","label":"Arboviral diseases, Jamestown Canyon  virus disease","m1_flag":"-","m2":"1","m2_flag":"-","m3_flag":"-","m4_flag":"-","location1":"MICHIGAN","sort_order":"20220200227","geocode":{"type":"Point","coordinates":[-85.730977,44.874798]}}
        ,{"states":"OHIO","year":"2022","week":"2","label":"Arboviral diseases, Jamestown Canyon  virus disease","m1_flag":"-","m2":"0","m2_flag":"-","m3_flag":"-","m4_flag":"-","location1":"OHIO","sort_order":"20220200228","geocode":{"type":"Point","coordinates":[-82.70936,40.415534]}}
        ,{"states":"WISCONSIN","year":"2022","week":"2","label":"Arboviral diseases, Jamestown Canyon  virus disease","m1_flag":"-","m2":"1","m2_flag":"-","m3_flag":"-","m4_flag":"-","location1":"WISCONSIN","sort_order":"20220200229","geocode":{"type":"Point","coordinates":[-89.732969,44.639954]}}
        ,{"states":"WEST NORTH CENTRAL","year":"2022","week":"2","label":"Arboviral diseases, Jamestown Canyon  virus disease","m1_flag":"-","m2":"1","m2_flag":"-","m3_flag":"-","m4_flag":"-","location2":"WEST NORTH CENTRAL","sort_order":"20220200230"}
        ,{"states":"IOWA","year":"2022","week":"2","label":"Arboviral diseases, Jamestown Canyon  virus disease","m1_flag":"-","m2":"0","m2_flag":"-","m3_flag":"-","m4_flag":"-","location1":"IOWA","sort_order":"20220200231","geocode":{"type":"Point","coordinates":[-93.500061,42.074659]}}
        ,{"states":"KANSAS","year":"2022","week":"2","label":"Arboviral diseases, Jamestown Canyon  virus disease","m1_flag":"-","m2":"0","m2_flag":"-","m3_flag":"-","m4_flag":"-","location1":"KANSAS","sort_order":"20220200232","geocode":{"type":"Point","coordinates":[-98.38018,38.484729]}}
        ,{"states":"MINNESOTA","year":"2022","week":"2","label":"Arboviral diseases, Jamestown Canyon  virus disease","m1_flag":"-","m2":"1","m2_flag":"-","m3_flag":"-","m4_flag":"-","location1":"MINNESOTA","sort_order":"20220200233","geocode":{"type":"Point","coordinates":[-94.198308,46.349153]}}
        ,{"states":"MISSOURI","year":"2022","week":"2","label":"Arboviral diseases, Jamestown Canyon  virus disease","m1_flag":"-","m2":"0","m2_flag":"-","m3_flag":"-","m4_flag":"-","location1":"MISSOURI","sort_order":"20220200234","geocode":{"type":"Point","coordinates":[-92.477244,38.3675]}}
        ,{"states":"NEBRASKA","year":"2022","week":"2","label":"Arboviral diseases, Jamestown Canyon  virus disease","m1_flag":"-","m2":"0","m2_flag":"-","m3_flag":"-","m4_flag":"-","location1":"NEBRASKA","sort_order":"20220200235","geocode":{"type":"Point","coordinates":[-99.810595,41.527099]}}
        ,{"states":"NORTH DAKOTA","year":"2022","week":"2","label":"Arboviral diseases, Jamestown Canyon  virus disease","m1_flag":"-","m2":"0","m2_flag":"-","m3_flag":"-","m4_flag":"-","location1":"NORTH DAKOTA","sort_order":"20220200236","geocode":{"type":"Point","coordinates":[-100.46931,47.446305]}}
        ,{"states":"SOUTH DAKOTA","year":"2022","week":"2","label":"Arboviral diseases, Jamestown Canyon  virus disease","m1_flag":"-","m2":"0","m2_flag":"-","m3_flag":"-","m4_flag":"-","location1":"SOUTH DAKOTA","sort_order":"20220200237","geocode":{"type":"Point","coordinates":[-100.230491,44.43614]}}
        ,{"states":"SOUTH ATLANTIC","year":"2022","week":"2","label":"Arboviral diseases, Jamestown Canyon  virus disease","m1_flag":"-","m2":"0","m2_flag":"-","m3_flag":"-","m4_flag":"-","location2":"SOUTH ATLANTIC","sort_order":"20220200238"}
        ,{"states":"DELAWARE","year":"2022","week":"2","label":"Arboviral diseases, Jamestown Canyon  virus disease","m1_flag":"-","m2":"0","m2_flag":"-","m3_flag":"-","m4_flag":"-","location1":"DELAWARE","sort_order":"20220200239","geocode":{"type":"Point","coordinates":[-75.452394,38.994926]}}
        ,{"states":"DISTRICT OF COLUMBIA","year":"2022","week":"2","label":"Arboviral diseases, Jamestown Canyon  virus disease","m1_flag":"-","m2":"0","m2_flag":"-","m3_flag":"-","m4_flag":"-","location1":"DISTRICT OF COLUMBIA","sort_order":"20220200240","geocode":{"type":"Point","coordinates":[-77.016275,38.904785]}}
        ,{"states":"FLORIDA","year":"2022","week":"2","label":"Arboviral diseases, Jamestown Canyon  virus disease","m1_flag":"-","m2":"0","m2_flag":"-","m3_flag":"-","m4_flag":"-","location1":"FLORIDA","sort_order":"20220200241","geocode":{"type":"Point","coordinates":[-82.420978,28.260731]}}
        ,{"states":"GEORGIA","year":"2022","week":"2","label":"Arboviral diseases, Jamestown Canyon  virus disease","m1_flag":"-","m2":"0","m2_flag":"-","m3_flag":"-","m4_flag":"-","location1":"GEORGIA","sort_order":"20220200242","geocode":{"type":"Point","coordinates":[-83.426574,32.638481]}}
        ,{"states":"MARYLAND","year":"2022","week":"2","label":"Arboviral diseases, Jamestown Canyon  virus disease","m1_flag":"-","m2":"0","m2_flag":"-","m3_flag":"-","m4_flag":"-","location1":"MARYLAND","sort_order":"20220200243","geocode":{"type":"Point","coordinates":[-76.687282,38.946466]}}
        ,{"states":"NORTH CAROLINA","year":"2022","week":"2","label":"Arboviral diseases, Jamestown Canyon  virus disease","m1_flag":"-","m2":"0","m2_flag":"-","m3_flag":"-","m4_flag":"-","location1":"NORTH CAROLINA","sort_order":"20220200244","geocode":{"type":"Point","coordinates":[-79.130883,35.52603]}}
        ,{"states":"SOUTH CAROLINA","year":"2022","week":"2","label":"Arboviral diseases, Jamestown Canyon  virus disease","m1_flag":"-","m2":"0","m2_flag":"-","m3_flag":"-","m4_flag":"-","location1":"SOUTH CAROLINA","sort_order":"20220200245","geocode":{"type":"Point","coordinates":[-80.864614,33.878572]}}
        ,{"states":"VIRGINIA","year":"2022","week":"2","label":"Arboviral diseases, Jamestown Canyon  virus disease","m1_flag":"-","m2":"0","m2_flag":"-","m3_flag":"-","m4_flag":"-","location1":"VIRGINIA","sort_order":"20220200246","geocode":{"type":"Point","coordinates":[-78.666382,37.510861]}}
        ,{"states":"WEST VIRGINIA","year":"2022","week":"2","label":"Arboviral diseases, Jamestown Canyon  virus disease","m1_flag":"-","m2":"0","m2_flag":"-","m3_flag":"-","m4_flag":"-","location1":"WEST VIRGINIA","sort_order":"20220200247","geocode":{"type":"Point","coordinates":[-80.613729,38.642579]}}
        ,{"states":"EAST SOUTH CENTRAL","year":"2022","week":"2","label":"Arboviral diseases, Jamestown Canyon  virus disease","m1_flag":"-","m2":"0","m2_flag":"-","m3_flag":"-","m4_flag":"-","location2":"EAST SOUTH CENTRAL","sort_order":"20220200248"}
        ,{"states":"ALABAMA","year":"2022","week":"2","label":"Arboviral diseases, Jamestown Canyon  virus disease","m1_flag":"-","m2":"0","m2_flag":"-","m3_flag":"-","m4_flag":"-","location1":"ALABAMA","sort_order":"20220200249","geocode":{"type":"Point","coordinates":[-86.844516,32.756889]}}
        ,{"states":"KENTUCKY","year":"2022","week":"2","label":"Arboviral diseases, Jamestown Canyon  virus disease","m1_flag":"-","m2":"0","m2_flag":"-","m3_flag":"-","m4_flag":"-","location1":"KENTUCKY","sort_order":"20220200250","geocode":{"type":"Point","coordinates":[-85.290484,37.526683]}}
        ,{"states":"MISSISSIPPI","year":"2022","week":"2","label":"Arboviral diseases, Jamestown Canyon  virus disease","m1_flag":"-","m2":"0","m2_flag":"-","m3_flag":"-","m4_flag":"-","location1":"MISSISSIPPI","sort_order":"20220200251","geocode":{"type":"Point","coordinates":[-89.65344,32.713378]}}
        ,{"states":"TENNESSEE","year":"2022","week":"2","label":"Arboviral diseases, Jamestown Canyon  virus disease","m1_flag":"-","m2":"0","m2_flag":"-","m3_flag":"-","m4_flag":"-","location1":"TENNESSEE","sort_order":"20220200252","geocode":{"type":"Point","coordinates":[-86.343226,35.842998]}}
        ,{"states":"WEST SOUTH CENTRAL","year":"2022","week":"2","label":"Arboviral diseases, Jamestown Canyon  virus disease","m1_flag":"-","m2":"0","m2_flag":"-","m3_flag":"-","m4_flag":"-","location2":"WEST SOUTH CENTRAL","sort_order":"20220200253"}
        ,{"states":"ARKANSAS","year":"2022","week":"2","label":"Arboviral diseases, Jamestown Canyon  virus disease","m1_flag":"-","m2":"0","m2_flag":"-","m3_flag":"-","m4_flag":"-","location1":"ARKANSAS","sort_order":"20220200254","geocode":{"type":"Point","coordinates":[-92.439162,34.899825]}}
        ,{"states":"LOUISIANA","year":"2022","week":"2","label":"Arboviral diseases, Jamestown Canyon  virus disease","m1_flag":"-","m2":"0","m2_flag":"-","m3_flag":"-","m4_flag":"-","location1":"LOUISIANA","sort_order":"20220200255","geocode":{"type":"Point","coordinates":[-91.840238,30.921314]}}
        ,{"states":"OKLAHOMA","year":"2022","week":"2","label":"Arboviral diseases, Jamestown Canyon  virus disease","m1_flag":"-","m2":"0","m2_flag":"-","m3_flag":"-","m4_flag":"-","location1":"OKLAHOMA","sort_order":"20220200256","geocode":{"type":"Point","coordinates":[-97.508297,35.583449]}}
        ,{"states":"TEXAS","year":"2022","week":"2","label":"Arboviral diseases, Jamestown Canyon  virus disease","m1_flag":"-","m2":"0","m2_flag":"-","m3_flag":"-","m4_flag":"-","location1":"TEXAS","sort_order":"20220200257","geocode":{"type":"Point","coordinates":[-99.317341,31.447238]}}
        ,{"states":"MOUNTAIN","year":"2022","week":"2","label":"Arboviral diseases, Jamestown Canyon  virus disease","m1_flag":"-","m2":"0","m2_flag":"-","m3_flag":"-","m4_flag":"-","location2":"MOUNTAIN","sort_order":"20220200258"}
        ,{"states":"ARIZONA","year":"2022","week":"2","label":"Arboviral diseases, Jamestown Canyon  virus disease","m1_flag":"-","m2":"0","m2_flag":"-","m3_flag":"-","m4_flag":"-","location1":"ARIZONA","sort_order":"20220200259","geocode":{"type":"Point","coordinates":[-111.664616,34.293239]}}
        ,{"states":"COLORADO","year":"2022","week":"2","label":"Arboviral diseases, Jamestown Canyon  virus disease","m1_flag":"-","m2":"0","m2_flag":"-","m3_flag":"-","m4_flag":"-","location1":"COLORADO","sort_order":"20220200260","geocode":{"type":"Point","coordinates":[-105.547832,38.998552]}}
        ,{"states":"IDAHO","year":"2022","week":"2","label":"Arboviral diseases, Jamestown Canyon  virus disease","m1_flag":"-","m2":"0","m2_flag":"-","m3_flag":"-","m4_flag":"-","location1":"IDAHO","sort_order":"20220200261","geocode":{"type":"Point","coordinates":[-114.659366,44.389073]}}
        ,{"states":"MONTANA","year":"2022","week":"2","label":"Arboviral diseases, Jamestown Canyon  virus disease","m1_flag":"-","m2":"0","m2_flag":"-","m3_flag":"-","m4_flag":"-","location1":"MONTANA","sort_order":"20220200262","geocode":{"type":"Point","coordinates":[-109.645127,47.033521]}}
        ,{"states":"NEVADA","year":"2022","week":"2","label":"Arboviral diseases, Jamestown Canyon  virus disease","m1_flag":"-","m2":"0","m2_flag":"-","m3_flag":"-","m4_flag":"-","location1":"NEVADA","sort_order":"20220200263","geocode":{"type":"Point","coordinates":[-114.916992,39.283294]}}
        ,{"states":"NEW MEXICO","year":"2022","week":"2","label":"Arboviral diseases, Jamestown Canyon  virus disease","m1_flag":"-","m2":"0","m2_flag":"-","m3_flag":"-","m4_flag":"-","location1":"NEW MEXICO","sort_order":"20220200264","geocode":{"type":"Point","coordinates":[-106.108388,34.421369]}}
        ,{"states":"UTAH","year":"2022","week":"2","label":"Arboviral diseases, Jamestown Canyon  virus disease","m1_flag":"-","m2":"0","m2_flag":"-","m3_flag":"-","m4_flag":"-","location1":"UTAH","sort_order":"20220200265","geocode":{"type":"Point","coordinates":[-111.678222,39.323779]}}
        ,{"states":"WYOMING","year":"2022","week":"2","label":"Arboviral diseases, Jamestown Canyon  virus disease","m1_flag":"-","m2":"0","m2_flag":"-","m3_flag":"-","m4_flag":"-","location1":"WYOMING","sort_order":"20220200266","geocode":{"type":"Point","coordinates":[-107.55145,42.999627]}}
        ,{"states":"PACIFIC","year":"2022","week":"2","label":"Arboviral diseases, Jamestown Canyon  virus disease","m1_flag":"-","m2":"0","m2_flag":"-","m3_flag":"-","m4_flag":"-","location2":"PACIFIC","sort_order":"20220200267"}
        ,{"states":"ALASKA","year":"2022","week":"2","label":"Arboviral diseases, Jamestown Canyon  virus disease","m1_flag":"-","m2":"0","m2_flag":"-","m3_flag":"-","m4_flag":"-","location1":"ALASKA","sort_order":"20220200268","geocode":{"type":"Point","coordinates":[-151.631889,63.631126]}}
        ,{"states":"CALIFORNIA","year":"2022","week":"2","label":"Arboviral diseases, Jamestown Canyon  virus disease","m1_flag":"-","m2":"0","m2_flag":"-","m3_flag":"-","m4_flag":"-","location1":"CALIFORNIA","sort_order":"20220200269","geocode":{"type":"Point","coordinates":[-119.662127,37.211164]}}
        ,{"states":"HAWAII","year":"2022","week":"2","label":"Arboviral diseases, Jamestown Canyon  virus disease","m1_flag":"-","m2":"0","m2_flag":"-","m3_flag":"-","m4_flag":"-","location1":"HAWAII","sort_order":"20220200270","geocode":{"type":"Point","coordinates":[-157.854309,21.361013]}}
        ,{"states":"OREGON","year":"2022","week":"2","label":"Arboviral diseases, Jamestown Canyon  virus disease","m1_flag":"-","m2":"0","m2_flag":"-","m3_flag":"-","m4_flag":"-","location1":"OREGON","sort_order":"20220200271","geocode":{"type":"Point","coordinates":[-120.605279,43.940449]}}
        ,{"states":"WASHINGTON","year":"2022","week":"2","label":"Arboviral diseases, Jamestown Canyon  virus disease","m1_flag":"-","m2":"0","m2_flag":"-","m3_flag":"-","m4_flag":"-","location1":"WASHINGTON","sort_order":"20220200272","geocode":{"type":"Point","coordinates":[-120.592492,47.411715]}}
        ,{"states":"US TERRITORIES","year":"2022","week":"2","label":"Arboviral diseases, Jamestown Canyon  virus disease","m1_flag":"-","m2":"0","m2_flag":"-","m3_flag":"-","m4_flag":"-","location2":"US TERRITORIES","sort_order":"20220200273"}
        ,{"states":"AMERICAN SAMOA","year":"2022","week":"2","label":"Arboviral diseases, Jamestown Canyon  virus disease","m1_flag":"-","m2":"0","m2_flag":"-","m3_flag":"-","m4_flag":"-","location1":"AMERICAN SAMOA","sort_order":"20220200274"}
        ,{"states":"NORTHERN MARIANA ISLANDS","year":"2022","week":"2","label":"Arboviral diseases, Jamestown Canyon  virus disease","m1_flag":"-","m2":"0","m2_flag":"-","m3_flag":"-","m4_flag":"-","location1":"NORTHERN MARIANA ISLANDS","sort_order":"20220200275","geocode":{"type":"Point","coordinates":[145.725693,15.1834]}}
        ,{"states":"GUAM","year":"2022","week":"2","label":"Arboviral diseases, Jamestown Canyon  virus disease","m1_flag":"-","m2":"0","m2_flag":"-","m3_flag":"-","m4_flag":"-","location1":"GUAM","sort_order":"20220200276","geocode":{"type":"Point","coordinates":[144.653198,13.3532]}}
        ,{"states":"PUERTO RICO","year":"2022","week":"2","label":"Arboviral diseases, Jamestown Canyon  virus disease","m1_flag":"-","m2":"0","m2_flag":"-","m3_flag":"-","m4_flag":"-","location1":"PUERTO RICO","sort_order":"20220200277","geocode":{"type":"Point","coordinates":[-66.414655,18.215692]}}
        ,{"states":"U.S. VIRGIN ISLANDS","year":"2022","week":"2","label":"Arboviral diseases, Jamestown Canyon  virus disease","m1_flag":"-","m2":"0","m2_flag":"-","m3_flag":"-","m4_flag":"-","location1":"U.S. VIRGIN ISLANDS","sort_order":"20220200278"}
        ,{"states":"NON-US RESIDENTS","year":"2022","week":"2","label":"Arboviral diseases, Jamestown Canyon  virus disease","m1_flag":"-","m2":"0","m2_flag":"-","m3_flag":"-","m4_flag":"-","location2":"NON-US RESIDENTS","sort_order":"20220200279"}
        ,{"states":"TOTAL","year":"2022","week":"2","label":"Arboviral diseases, Jamestown Canyon  virus disease","m1_flag":"-","m2":"3","m2_flag":"-","m3_flag":"-","m4_flag":"-","location2":"TOTAL","sort_order":"20220200280"}
        ,{"states":"US RESIDENTS","year":"2022","week":"2","label":"Arboviral diseases, La Crosse  virus disease","m1_flag":"-","m2":"5","m2_flag":"-","m3_flag":"-","m4_flag":"-","location2":"US RESIDENTS","sort_order":"20220200281"}
        ,{"states":"NEW ENGLAND","year":"2022","week":"2","label":"Arboviral diseases, La Crosse  virus disease","m1_flag":"-","m2":"0","m2_flag":"-","m3_flag":"-","m4_flag":"-","location2":"NEW ENGLAND","sort_order":"20220200282"}
        ,{"states":"CONNECTICUT","year":"2022","week":"2","label":"Arboviral diseases, La Crosse  virus disease","m1_flag":"-","m2":"0","m2_flag":"-","m3_flag":"-","m4_flag":"-","location1":"CONNECTICUT","sort_order":"20220200283","geocode":{"type":"Point","coordinates":[-72.738288,41.575155]}}
        ,{"states":"MAINE","year":"2022","week":"2","label":"Arboviral diseases, La Crosse  virus disease","m1_flag":"-","m2":"0","m2_flag":"-","m3_flag":"-","m4_flag":"-","location1":"MAINE","sort_order":"20220200284","geocode":{"type":"Point","coordinates":[-69.06137,45.117911]}}
        ,{"states":"MASSACHUSETTS","year":"2022","week":"2","label":"Arboviral diseases, La Crosse  virus disease","m1_flag":"-","m2":"0","m2_flag":"-","m3_flag":"-","m4_flag":"-","location1":"MASSACHUSETTS","sort_order":"20220200285","geocode":{"type":"Point","coordinates":[-71.481104,42.151077]}}
        ,{"states":"NEW HAMPSHIRE","year":"2022","week":"2","label":"Arboviral diseases, La Crosse  virus disease","m1_flag":"-","m2":"0","m2_flag":"-","m3_flag":"-","m4_flag":"-","location1":"NEW HAMPSHIRE","sort_order":"20220200286","geocode":{"type":"Point","coordinates":[-71.57139,43.680429]}}
        ,{"states":"RHODE ISLAND","year":"2022","week":"2","label":"Arboviral diseases, La Crosse  virus disease","m1_flag":"-","m2":"0","m2_flag":"-","m3_flag":"-","m4_flag":"-","location1":"RHODE ISLAND","sort_order":"20220200287","geocode":{"type":"Point","coordinates":[-71.534637,41.572574]}}
        ,{"states":"VERMONT","year":"2022","week":"2","label":"Arboviral diseases, La Crosse  virus disease","m1_flag":"-","m2":"0","m2_flag":"-","m3_flag":"-","m4_flag":"-","location1":"VERMONT","sort_order":"20220200288","geocode":{"type":"Point","coordinates":[-72.662695,44.075252]}}
        ,{"states":"MIDDLE ATLANTIC","year":"2022","week":"2","label":"Arboviral diseases, La Crosse  virus disease","m1_flag":"-","m2":"0","m2_flag":"-","m3_flag":"-","m4_flag":"-","location2":"MIDDLE ATLANTIC","sort_order":"20220200289"}
        ,{"states":"NEW JERSEY","year":"2022","week":"2","label":"Arboviral diseases, La Crosse  virus disease","m1_flag":"-","m2":"0","m2_flag":"-","m3_flag":"-","m4_flag":"-","location1":"NEW JERSEY","sort_order":"20220200290","geocode":{"type":"Point","coordinates":[-74.655514,40.110253]}}
        ,{"states":"NEW YORK","year":"2022","week":"2","label":"Arboviral diseases, La Crosse  virus disease","m1_flag":"-","m2":"0","m2_flag":"-","m3_flag":"-","m4_flag":"-","location1":"NEW YORK","sort_order":"20220200291","geocode":{"type":"Point","coordinates":[-75.59655,42.921241]}}
        ,{"states":"NEW YORK CITY","year":"2022","week":"2","label":"Arboviral diseases, La Crosse  virus disease","m1_flag":"-","m2":"0","m2_flag":"-","m3_flag":"-","m4_flag":"-","location1":"NEW YORK CITY","sort_order":"20220200292"}
        ,{"states":"PENNSYLVANIA","year":"2022","week":"2","label":"Arboviral diseases, La Crosse  virus disease","m1_flag":"-","m2":"0","m2_flag":"-","m3_flag":"-","m4_flag":"-","location1":"PENNSYLVANIA","sort_order":"20220200293","geocode":{"type":"Point","coordinates":[-77.838886,40.896694]}}
        ,{"states":"EAST NORTH CENTRAL","year":"2022","week":"2","label":"Arboviral diseases, La Crosse  virus disease","m1_flag":"-","m2":"4","m2_flag":"-","m3_flag":"-","m4_flag":"-","location2":"EAST NORTH CENTRAL","sort_order":"20220200294"}
        ,{"states":"ILLINOIS","year":"2022","week":"2","label":"Arboviral diseases, La Crosse  virus disease","m1_flag":"-","m2":"1","m2_flag":"-","m3_flag":"-","m4_flag":"-","location1":"ILLINOIS","sort_order":"20220200295","geocode":{"type":"Point","coordinates":[-89.148632,40.124144]}}
        ,{"states":"INDIANA","year":"2022","week":"2","label":"Arboviral diseases, La Crosse  virus disease","m1_flag":"-","m2":"1","m2_flag":"-","m3_flag":"-","m4_flag":"-","location1":"INDIANA","sort_order":"20220200296","geocode":{"type":"Point","coordinates":[-86.2818,39.919991]}}
        ,{"states":"MICHIGAN","year":"2022","week":"2","label":"Arboviral diseases, La Crosse  virus disease","m1_flag":"-","m2":"1","m2_flag":"-","m3_flag":"-","m4_flag":"-","location1":"MICHIGAN","sort_order":"20220200297","geocode":{"type":"Point","coordinates":[-85.730977,44.874798]}}
        ,{"states":"OHIO","year":"2022","week":"2","label":"Arboviral diseases, La Crosse  virus disease","m1_flag":"-","m2":"4","m2_flag":"-","m3_flag":"-","m4_flag":"-","location1":"OHIO","sort_order":"20220200298","geocode":{"type":"Point","coordinates":[-82.70936,40.415534]}}
        ,{"states":"WISCONSIN","year":"2022","week":"2","label":"Arboviral diseases, La Crosse  virus disease","m1_flag":"-","m2":"1","m2_flag":"-","m3_flag":"-","m4_flag":"-","location1":"WISCONSIN","sort_order":"20220200299","geocode":{"type":"Point","coordinates":[-89.732969,44.639954]}}
        ,{"states":"WEST NORTH CENTRAL","year":"2022","week":"2","label":"Arboviral diseases, La Crosse  virus disease","m1_flag":"-","m2":"0","m2_flag":"-","m3_flag":"-","m4_flag":"-","location2":"WEST NORTH CENTRAL","sort_order":"20220200300"}
        ,{"states":"IOWA","year":"2022","week":"2","label":"Arboviral diseases, La Crosse  virus disease","m1_flag":"-","m2":"0","m2_flag":"-","m3_flag":"-","m4_flag":"-","location1":"IOWA","sort_order":"20220200301","geocode":{"type":"Point","coordinates":[-93.500061,42.074659]}}
        ,{"states":"KANSAS","year":"2022","week":"2","label":"Arboviral diseases, La Crosse  virus disease","m1_flag":"-","m2":"0","m2_flag":"-","m3_flag":"-","m4_flag":"-","location1":"KANSAS","sort_order":"20220200302","geocode":{"type":"Point","coordinates":[-98.38018,38.484729]}}
        ,{"states":"MINNESOTA","year":"2022","week":"2","label":"Arboviral diseases, La Crosse  virus disease","m1_flag":"-","m2":"0","m2_flag":"-","m3_flag":"-","m4_flag":"-","location1":"MINNESOTA","sort_order":"20220200303","geocode":{"type":"Point","coordinates":[-94.198308,46.349153]}}
        ,{"states":"MISSOURI","year":"2022","week":"2","label":"Arboviral diseases, La Crosse  virus disease","m1_flag":"-","m2":"0","m2_flag":"-","m3_flag":"-","m4_flag":"-","location1":"MISSOURI","sort_order":"20220200304","geocode":{"type":"Point","coordinates":[-92.477244,38.3675]}}
        ,{"states":"NEBRASKA","year":"2022","week":"2","label":"Arboviral diseases, La Crosse  virus disease","m1_flag":"-","m2":"0","m2_flag":"-","m3_flag":"-","m4_flag":"-","location1":"NEBRASKA","sort_order":"20220200305","geocode":{"type":"Point","coordinates":[-99.810595,41.527099]}}
        ,{"states":"NORTH DAKOTA","year":"2022","week":"2","label":"Arboviral diseases, La Crosse  virus disease","m1_flag":"-","m2":"0","m2_flag":"-","m3_flag":"-","m4_flag":"-","location1":"NORTH DAKOTA","sort_order":"20220200306","geocode":{"type":"Point","coordinates":[-100.46931,47.446305]}}
        ,{"states":"SOUTH DAKOTA","year":"2022","week":"2","label":"Arboviral diseases, La Crosse  virus disease","m1_flag":"-","m2":"0","m2_flag":"-","m3_flag":"-","m4_flag":"-","location1":"SOUTH DAKOTA","sort_order":"20220200307","geocode":{"type":"Point","coordinates":[-100.230491,44.43614]}}
        ,{"states":"SOUTH ATLANTIC","year":"2022","week":"2","label":"Arboviral diseases, La Crosse  virus disease","m1_flag":"-","m2":"2","m2_flag":"-","m3_flag":"-","m4_flag":"-","location2":"SOUTH ATLANTIC","sort_order":"20220200308"}
        ,{"states":"DELAWARE","year":"2022","week":"2","label":"Arboviral diseases, La Crosse  virus disease","m1_flag":"-","m2":"0","m2_flag":"-","m3_flag":"-","m4_flag":"-","location1":"DELAWARE","sort_order":"20220200309","geocode":{"type":"Point","coordinates":[-75.452394,38.994926]}}
        ,{"states":"DISTRICT OF COLUMBIA","year":"2022","week":"2","label":"Arboviral diseases, La Crosse  virus disease","m1_flag":"-","m2":"0","m2_flag":"-","m3_flag":"-","m4_flag":"-","location1":"DISTRICT OF COLUMBIA","sort_order":"20220200310","geocode":{"type":"Point","coordinates":[-77.016275,38.904785]}}
        ,{"states":"FLORIDA","year":"2022","week":"2","label":"Arboviral diseases, La Crosse  virus disease","m1_flag":"-","m2":"0","m2_flag":"-","m3_flag":"-","m4_flag":"-","location1":"FLORIDA","sort_order":"20220200311","geocode":{"type":"Point","coordinates":[-82.420978,28.260731]}}
        ,{"states":"GEORGIA","year":"2022","week":"2","label":"Arboviral diseases, La Crosse  virus disease","m1_flag":"-","m2":"0","m2_flag":"-","m3_flag":"-","m4_flag":"-","location1":"GEORGIA","sort_order":"20220200312","geocode":{"type":"Point","coordinates":[-83.426574,32.638481]}}
        ,{"states":"MARYLAND","year":"2022","week":"2","label":"Arboviral diseases, La Crosse  virus disease","m1_flag":"-","m2":"0","m2_flag":"-","m3_flag":"-","m4_flag":"-","location1":"MARYLAND","sort_order":"20220200313","geocode":{"type":"Point","coordinates":[-76.687282,38.946466]}}
        ,{"states":"NORTH CAROLINA","year":"2022","week":"2","label":"Arboviral diseases, La Crosse  virus disease","m1_flag":"-","m2":"2","m2_flag":"-","m3_flag":"-","m4_flag":"-","location1":"NORTH CAROLINA","sort_order":"20220200314","geocode":{"type":"Point","coordinates":[-79.130883,35.52603]}}
        ,{"states":"SOUTH CAROLINA","year":"2022","week":"2","label":"Arboviral diseases, La Crosse  virus disease","m1_flag":"-","m2":"0","m2_flag":"-","m3_flag":"-","m4_flag":"-","location1":"SOUTH CAROLINA","sort_order":"20220200315","geocode":{"type":"Point","coordinates":[-80.864614,33.878572]}}
        ,{"states":"VIRGINIA","year":"2022","week":"2","label":"Arboviral diseases, La Crosse  virus disease","m1_flag":"-","m2":"0","m2_flag":"-","m3_flag":"-","m4_flag":"-","location1":"VIRGINIA","sort_order":"20220200316","geocode":{"type":"Point","coordinates":[-78.666382,37.510861]}}
        ,{"states":"WEST VIRGINIA","year":"2022","week":"2","label":"Arboviral diseases, La Crosse  virus disease","m1_flag":"-","m2":"0","m2_flag":"-","m3_flag":"-","m4_flag":"-","location1":"WEST VIRGINIA","sort_order":"20220200317","geocode":{"type":"Point","coordinates":[-80.613729,38.642579]}}
        ,{"states":"EAST SOUTH CENTRAL","year":"2022","week":"2","label":"Arboviral diseases, La Crosse  virus disease","m1_flag":"-","m2":"2","m2_flag":"-","m3_flag":"-","m4_flag":"-","location2":"EAST SOUTH CENTRAL","sort_order":"20220200318"}
        ,{"states":"ALABAMA","year":"2022","week":"2","label":"Arboviral diseases, La Crosse  virus disease","m1_flag":"-","m2":"0","m2_flag":"-","m3_flag":"-","m4_flag":"-","location1":"ALABAMA","sort_order":"20220200319","geocode":{"type":"Point","coordinates":[-86.844516,32.756889]}}
        ,{"states":"KENTUCKY","year":"2022","week":"2","label":"Arboviral diseases, La Crosse  virus disease","m1_flag":"-","m2":"0","m2_flag":"-","m3_flag":"-","m4_flag":"-","location1":"KENTUCKY","sort_order":"20220200320","geocode":{"type":"Point","coordinates":[-85.290484,37.526683]}}
        ,{"states":"MISSISSIPPI","year":"2022","week":"2","label":"Arboviral diseases, La Crosse  virus disease","m1_flag":"-","m2":"0","m2_flag":"-","m3_flag":"-","m4_flag":"-","location1":"MISSISSIPPI","sort_order":"20220200321","geocode":{"type":"Point","coordinates":[-89.65344,32.713378]}}
        ,{"states":"TENNESSEE","year":"2022","week":"2","label":"Arboviral diseases, La Crosse  virus disease","m1_flag":"-","m2":"2","m2_flag":"-","m3_flag":"-","m4_flag":"-","location1":"TENNESSEE","sort_order":"20220200322","geocode":{"type":"Point","coordinates":[-86.343226,35.842998]}}
        ,{"states":"WEST SOUTH CENTRAL","year":"2022","week":"2","label":"Arboviral diseases, La Crosse  virus disease","m1_flag":"-","m2":"0","m2_flag":"-","m3_flag":"-","m4_flag":"-","location2":"WEST SOUTH CENTRAL","sort_order":"20220200323"}
        ,{"states":"ARKANSAS","year":"2022","week":"2","label":"Arboviral diseases, La Crosse  virus disease","m1_flag":"-","m2":"0","m2_flag":"-","m3_flag":"-","m4_flag":"-","location1":"ARKANSAS","sort_order":"20220200324","geocode":{"type":"Point","coordinates":[-92.439162,34.899825]}}
        ,{"states":"LOUISIANA","year":"2022","week":"2","label":"Arboviral diseases, La Crosse  virus disease","m1_flag":"-","m2":"0","m2_flag":"-","m3_flag":"-","m4_flag":"-","location1":"LOUISIANA","sort_order":"20220200325","geocode":{"type":"Point","coordinates":[-91.840238,30.921314]}}
        ,{"states":"OKLAHOMA","year":"2022","week":"2","label":"Arboviral diseases, La Crosse  virus disease","m1_flag":"-","m2":"0","m2_flag":"-","m3_flag":"-","m4_flag":"-","location1":"OKLAHOMA","sort_order":"20220200326","geocode":{"type":"Point","coordinates":[-97.508297,35.583449]}}
        ,{"states":"TEXAS","year":"2022","week":"2","label":"Arboviral diseases, La Crosse  virus disease","m1_flag":"-","m2":"0","m2_flag":"-","m3_flag":"-","m4_flag":"-","location1":"TEXAS","sort_order":"20220200327","geocode":{"type":"Point","coordinates":[-99.317341,31.447238]}}
        ,{"states":"MOUNTAIN","year":"2022","week":"2","label":"Arboviral diseases, La Crosse  virus disease","m1_flag":"-","m2":"0","m2_flag":"-","m3_flag":"-","m4_flag":"-","location2":"MOUNTAIN","sort_order":"20220200328"}
        ,{"states":"ARIZONA","year":"2022","week":"2","label":"Arboviral diseases, La Crosse  virus disease","m1_flag":"-","m2":"0","m2_flag":"-","m3_flag":"-","m4_flag":"-","location1":"ARIZONA","sort_order":"20220200329","geocode":{"type":"Point","coordinates":[-111.664616,34.293239]}}
        ,{"states":"COLORADO","year":"2022","week":"2","label":"Arboviral diseases, La Crosse  virus disease","m1_flag":"-","m2":"0","m2_flag":"-","m3_flag":"-","m4_flag":"-","location1":"COLORADO","sort_order":"20220200330","geocode":{"type":"Point","coordinates":[-105.547832,38.998552]}}
        ,{"states":"IDAHO","year":"2022","week":"2","label":"Arboviral diseases, La Crosse  virus disease","m1_flag":"-","m2":"0","m2_flag":"-","m3_flag":"-","m4_flag":"-","location1":"IDAHO","sort_order":"20220200331","geocode":{"type":"Point","coordinates":[-114.659366,44.389073]}}
        ,{"states":"MONTANA","year":"2022","week":"2","label":"Arboviral diseases, La Crosse  virus disease","m1_flag":"-","m2":"0","m2_flag":"-","m3_flag":"-","m4_flag":"-","location1":"MONTANA","sort_order":"20220200332","geocode":{"type":"Point","coordinates":[-109.645127,47.033521]}}
        ,{"states":"NEVADA","year":"2022","week":"2","label":"Arboviral diseases, La Crosse  virus disease","m1_flag":"-","m2":"0","m2_flag":"-","m3_flag":"-","m4_flag":"-","location1":"NEVADA","sort_order":"20220200333","geocode":{"type":"Point","coordinates":[-114.916992,39.283294]}}
        ,{"states":"NEW MEXICO","year":"2022","week":"2","label":"Arboviral diseases, La Crosse  virus disease","m1_flag":"-","m2":"0","m2_flag":"-","m3_flag":"-","m4_flag":"-","location1":"NEW MEXICO","sort_order":"20220200334","geocode":{"type":"Point","coordinates":[-106.108388,34.421369]}}
        ,{"states":"UTAH","year":"2022","week":"2","label":"Arboviral diseases, La Crosse  virus disease","m1_flag":"-","m2":"0","m2_flag":"-","m3_flag":"-","m4_flag":"-","location1":"UTAH","sort_order":"20220200335","geocode":{"type":"Point","coordinates":[-111.678222,39.323779]}}
        ,{"states":"WYOMING","year":"2022","week":"2","label":"Arboviral diseases, La Crosse  virus disease","m1_flag":"-","m2":"0","m2_flag":"-","m3_flag":"-","m4_flag":"-","location1":"WYOMING","sort_order":"20220200336","geocode":{"type":"Point","coordinates":[-107.55145,42.999627]}}
        ,{"states":"PACIFIC","year":"2022","week":"2","label":"Arboviral diseases, La Crosse  virus disease","m1_flag":"-","m2":"0","m2_flag":"-","m3_flag":"-","m4_flag":"-","location2":"PACIFIC","sort_order":"20220200337"}
        ,{"states":"ALASKA","year":"2022","week":"2","label":"Arboviral diseases, La Crosse  virus disease","m1_flag":"-","m2":"0","m2_flag":"-","m3_flag":"-","m4_flag":"-","location1":"ALASKA","sort_order":"20220200338","geocode":{"type":"Point","coordinates":[-151.631889,63.631126]}}
        ,{"states":"CALIFORNIA","year":"2022","week":"2","label":"Arboviral diseases, La Crosse  virus disease","m1_flag":"-","m2":"0","m2_flag":"-","m3_flag":"-","m4_flag":"-","location1":"CALIFORNIA","sort_order":"20220200339","geocode":{"type":"Point","coordinates":[-119.662127,37.211164]}}
        ,{"states":"HAWAII","year":"2022","week":"2","label":"Arboviral diseases, La Crosse  virus disease","m1_flag":"-","m2":"0","m2_flag":"-","m3_flag":"-","m4_flag":"-","location1":"HAWAII","sort_order":"20220200340","geocode":{"type":"Point","coordinates":[-157.854309,21.361013]}}
        ,{"states":"OREGON","year":"2022","week":"2","label":"Arboviral diseases, La Crosse  virus disease","m1_flag":"-","m2":"0","m2_flag":"-","m3_flag":"-","m4_flag":"-","location1":"OREGON","sort_order":"20220200341","geocode":{"type":"Point","coordinates":[-120.605279,43.940449]}}
        ,{"states":"WASHINGTON","year":"2022","week":"2","label":"Arboviral diseases, La Crosse  virus disease","m1_flag":"-","m2":"0","m2_flag":"-","m3_flag":"-","m4_flag":"-","location1":"WASHINGTON","sort_order":"20220200342","geocode":{"type":"Point","coordinates":[-120.592492,47.411715]}}
        ,{"states":"US TERRITORIES","year":"2022","week":"2","label":"Arboviral diseases, La Crosse  virus disease","m1_flag":"-","m2":"0","m2_flag":"-","m3_flag":"-","m4_flag":"-","location2":"US TERRITORIES","sort_order":"20220200343"}
        ,{"states":"AMERICAN SAMOA","year":"2022","week":"2","label":"Arboviral diseases, La Crosse  virus disease","m1_flag":"-","m2":"0","m2_flag":"-","m3_flag":"-","m4_flag":"-","location1":"AMERICAN SAMOA","sort_order":"20220200344"}
        ,{"states":"NORTHERN MARIANA ISLANDS","year":"2022","week":"2","label":"Arboviral diseases, La Crosse  virus disease","m1_flag":"-","m2":"0","m2_flag":"-","m3_flag":"-","m4_flag":"-","location1":"NORTHERN MARIANA ISLANDS","sort_order":"20220200345","geocode":{"type":"Point","coordinates":[145.725693,15.1834]}}
        ,{"states":"GUAM","year":"2022","week":"2","label":"Arboviral diseases, La Crosse  virus disease","m1_flag":"-","m2":"0","m2_flag":"-","m3_flag":"-","m4_flag":"-","location1":"GUAM","sort_order":"20220200346","geocode":{"type":"Point","coordinates":[144.653198,13.3532]}}
        ,{"states":"PUERTO RICO","year":"2022","week":"2","label":"Arboviral diseases, La Crosse  virus disease","m1_flag":"-","m2":"0","m2_flag":"-","m3_flag":"-","m4_flag":"-","location1":"PUERTO RICO","sort_order":"20220200347","geocode":{"type":"Point","coordinates":[-66.414655,18.215692]}}
        ,{"states":"U.S. VIRGIN ISLANDS","year":"2022","week":"2","label":"Arboviral diseases, La Crosse  virus disease","m1_flag":"-","m2":"0","m2_flag":"-","m3_flag":"-","m4_flag":"-","location1":"U.S. VIRGIN ISLANDS","sort_order":"20220200348"}
        ,{"states":"NON-US RESIDENTS","year":"2022","week":"2","label":"Arboviral diseases, La Crosse  virus disease","m1_flag":"-","m2":"0","m2_flag":"-","m3_flag":"-","m4_flag":"-","location2":"NON-US RESIDENTS","sort_order":"20220200349"}
        ,{"states":"TOTAL","year":"2022","week":"2","label":"Arboviral diseases, La Crosse  virus disease","m1_flag":"-","m2":"5","m2_flag":"-","m3_flag":"-","m4_flag":"-","location2":"TOTAL","sort_order":"20220200350"}
        ,{"states":"US RESIDENTS","year":"2022","week":"2","label":"Arboviral diseases, Powassan virus disease","m1_flag":"-","m2":"2","m2_flag":"-","m3_flag":"-","m4_flag":"-","location2":"US RESIDENTS","sort_order":"20220200351"}
        ,{"states":"NEW ENGLAND","year":"2022","week":"2","label":"Arboviral diseases, Powassan virus disease","m1_flag":"-","m2":"2","m2_flag":"-","m3_flag":"-","m4_flag":"-","location2":"NEW ENGLAND","sort_order":"20220200352"}
        ,{"states":"CONNECTICUT","year":"2022","week":"2","label":"Arboviral diseases, Powassan virus disease","m1_flag":"-","m2":"1","m2_flag":"-","m3_flag":"-","m4_flag":"-","location1":"CONNECTICUT","sort_order":"20220200353","geocode":{"type":"Point","coordinates":[-72.738288,41.575155]}}
        ,{"states":"MAINE","year":"2022","week":"2","label":"Arboviral diseases, Powassan virus disease","m1_flag":"-","m2":"2","m2_flag":"-","m3_flag":"-","m4_flag":"-","location1":"MAINE","sort_order":"20220200354","geocode":{"type":"Point","coordinates":[-69.06137,45.117911]}}
        ,{"states":"MASSACHUSETTS","year":"2022","week":"2","label":"Arboviral diseases, Powassan virus disease","m1_flag":"-","m2":"1","m2_flag":"-","m3_flag":"-","m4_flag":"-","location1":"MASSACHUSETTS","sort_order":"20220200355","geocode":{"type":"Point","coordinates":[-71.481104,42.151077]}}
